"title","address_city","address_community","address_county","address_state","address_street","address_street_number","date_collected","issuer_type","heated_water","heating","water_access","building_material","roof_material","fence","floors","rooms","bathroom_count","has_basement","has_balcony","year_built","location_latitude","location_longitude","price","price_currency","price_per_meter"
Dworek Terespol,Terespol,Terespol m,bialski,lubelskie,,,2022-01-07 15:26:47.356 +0100,REAL_ESTATE_AGENCY,,,,,,,,11,,true,,1825,,,1600000.0,PLN,2461.5384615384614
"Bielski, Wilamowice, Pisarzowice",Pisarzowice,Wilamowice,bielski,śląskie,,,2022-01-07 16:29:32.037 +0100,REAL_ESTATE_AGENCY,,,,,,,,4,,,,,49.8834,19.1456,129000.0,PLN,1075.0
"Brzeski, Brzeg",Brzeg,Brzeg,brzeski,opolskie,,,2022-01-07 16:18:57.366 +0100,REAL_ESTATE_AGENCY,OTHER_HEATING,OTHER_HEATING,WELL,BRICK,,,,5,,,,2010,50.8608509,17.466831,2600000.0,PLN,5777.777777777777
"Buski, Stopnica, Bosowice",Bosowice,Stopnica,buski,świętokrzyskie,,,2022-01-07 16:38:23.333 +0100,REAL_ESTATE_AGENCY,,,,,,,,10,2,,,1840,50.5258,20.8838,3300000.0,PLN,6111.111111111111
"Chełm, Rejowiec, Hruszów",Hruszów,Rejowiec,chełmski,lubelskie,Chełm,,2022-01-07 15:52:29.360 +0100,REAL_ESTATE_AGENCY,MUNICIPAL,OTHER_HEATING,WATER_SUPPLY,WOOD,METAL_SHEET,,,4,1,true,,2010,51.091113,23.281701,330000.0,PLN,1375.0
"Chełmski, Żmudź, Wólka Leszczańska",Wólka Leszczańska,Żmudź,chełmski,lubelskie,,,2022-01-07 15:51:38.024 +0100,REAL_ESTATE_AGENCY,,,,,,,,10,,,,,51.00952,23.63954,249000.0,PLN,498.0
"Dworek, ul. Równica",Ustroń,Ustroń,cieszyński,śląskie,,,2022-01-07 14:55:59.543 +0100,REAL_ESTATE_AGENCY,,GAS_HEATING,WELL,,,,,7,,true,true,1930,49.7186488,18.82510746,2500000.0,PLN,6024.096385542169
Dom na sprzedaż,Suliszewo,Drawsko Pomorskie,drawski,zachodniopomorskie,,,2022-01-07 20:18:21.837 +0100,REAL_ESTATE_AGENCY,,,,OTHER,,MESH,,,,,,,,,990000.0,PLN,680.4123711340206
"Gorzowski, Bogdaniec",Bogdaniec,Bogdaniec,gorzowski,lubuskie,,,2022-01-07 15:57:30.284 +0100,REAL_ESTATE_AGENCY,ELECTRIC_HEATING,TILED_STOVE,WATER_SUPPLY,BRICK,,OTHER,,5,1,true,,1934,52.6889,15.0708,849000.0,PLN,4245.0
"Gorzów Wielkopolski, Zakanale",Gorzów Wielkopolski,Gorzów Wielkopolski,Gorzów Wielkopolski,lubuskie,Zakanale,,2022-01-07 15:57:36.459 +0100,REAL_ESTATE_AGENCY,MUNICIPAL,GAS_HEATING,WATER_SUPPLY,,,OTHER,,7,2,,true,2005,52.7055048,15.2306013,999000.0,PLN,3027.2727272727275
Dom,Gola,Gostyń,gostyński,wielkopolskie,,,2022-01-07 15:36:32.374 +0100,REAL_ESTATE_AGENCY,,,WATER_SUPPLY,,,,,18,,true,,1800,51.8867993,16.9876854,3250000.0,PLN,3250.0
Dworek Podkowa Leśna,Podkowa Leśna,Podkowa Leśna,grodziski,mazowieckie,,,2022-01-07 15:38:53.497 +0100,REAL_ESTATE_AGENCY,,GAS_HEATING,,,,,,6,,true,true,1943,52.1199928,20.7265083,1450000.0,PLN,10000.0
Dworek Łasin,Łasin,Łasin,grudziądzki,kujawsko-pomorskie,,,2022-01-07 15:36:07.797 +0100,REAL_ESTATE_AGENCY,,,,,,,,4,,,true,1956,,,1650000.0,PLN,250.0
"świętokrzyskie, kielecki, Morawica, Bilcza",Bilcza,Morawica,kielecki,świętokrzyskie,,,2022-01-07 14:44:19.027 +0100,PRIVATE,,,,,,MESH,,8,,,,1997,50.786,20.616515,9500000.0,PLN,16464.471403812826
"Dom na sprzedaż: świętokrzyskie, kielecki, Morawica, Bilcza",Bilcza,Morawica,kielecki,świętokrzyskie,,,2022-01-07 12:17:40.418 +0100,PRIVATE,,,,,,MESH,,8,,,,1997,50.786,20.616515,8950000.0,PLN,
"Konecki, Fałków, Zamkowa",Fałków,Fałków,konecki,świętokrzyskie,Zamkowa,,2022-01-07 16:38:15.072 +0100,REAL_ESTATE_AGENCY,,BOILER_ROOM,,OTHER,,,,12,12,,,1836,51.134198,20.109272,1750000.0,PLN,2717.391304347826
"Kraków, Zwierzyniec, Wola Justowska, Lasek Wolski",Kraków,Kraków,Kraków,małopolskie,Zwierzyniec,,2022-01-07 16:07:26.409 +0100,REAL_ESTATE_AGENCY,MUNICIPAL,GAS_HEATING,WATER_SUPPLY,BRICK,CERAMIC_TILE,MESH,,5,5,true,true,2015,50.0555,19.8511,5590000.0,PLN,11694.560669456067
"Krapkowicki, Zdzieszowice",Zdzieszowice,Zdzieszowice,krapkowicki,opolskie,,,2022-01-07 16:18:47.271 +0100,REAL_ESTATE_AGENCY,,,,,CERAMIC_TILE,MIXED,,14,,true,,,50.42340442,18.11731696,1500000.0,PLN,1875.0
"Krasnostawski, Kraśniczyn, Surhów-Kolonia",Surhów-Kolonia,Kraśniczyn,krasnostawski,lubelskie,,,2022-01-07 15:53:28.528 +0100,REAL_ESTATE_AGENCY,MUNICIPAL,NONE,WATER_SUPPLY,BRICK,METAL_TILE,NONE,,6,,false,,1996,50.9464,23.269,460000.0,PLN,1642.857142857143
Dom na sprzedaż,Stańkowo,Prabuty,kwidzyński,pomorskie,,,2022-01-07 20:18:20.689 +0100,REAL_ESTATE_AGENCY,,,,OTHER,,OTHER,,1,,,,1960,,,999000.0,PLN,12487.5
Dworek Łaniewo,Łaniewo,Lidzbark Warmiński,lidzbarski,warmińsko-mazurskie,,,2022-01-07 15:43:59.779 +0100,REAL_ESTATE_AGENCY,,,WATER_SUPPLY,,,,,9,,true,,1920,54.0973136,20.4480136,820000.0,PLN,2342.8571428571427
"Lubelski, Krzczonów, Sobieska Wola Pierwsza",Sobieska Wola Pierwsza,Krzczonów,lubelski,lubelskie,,,2022-01-07 15:53:24.156 +0100,REAL_ESTATE_AGENCY,OTHER_HEATING,BOILER_ROOM,WATER_SUPPLY,BRICK,,,,2,,,true,1760,50.9661554,22.7876377,499900.0,PLN,1351.081081081081
"Lubliniecki, Ciasna, Panoszów",Panoszów,Ciasna,lubliniecki,śląskie,,,2022-01-07 16:33:12.684 +0100,REAL_ESTATE_AGENCY,MUNICIPAL,,WATER_SUPPLY,BRICK,CERAMIC_TILE,,,,,,,1880,50.8135,18.6339,299000.0,PLN,622.9166666666666
"Międzychodzki, Sieraków",Sieraków,Sieraków,międzychodzki,wielkopolskie,,,2022-01-07 16:44:06.615 +0100,REAL_ESTATE_AGENCY,,,WATER_SUPPLY,,,,,6,,,true,1890,52.65088,16.07973,1900000.0,PLN,4523.809523809524
"Miński, Dobre",Dobre,Dobre,miński,mazowieckie,,,2022-01-07 16:14:31.080 +0100,REAL_ESTATE_AGENCY,,OTHER_HEATING,,BRICK,CERAMIC_TILE,METAL,,5,1,true,true,1904,52.3209,21.6788,2240000.0,PLN,9739.130434782608
Dworek Kcynia,Kcynia,Kcynia,nakielski,kujawsko-pomorskie,,,2022-01-07 15:33:46.267 +0100,REAL_ESTATE_AGENCY,,,,,,,,20,,true,,1870,,,2200000.0,PLN,2200.0
"Dom na sprzedaż lub zamianę: Nakielski (Pow.), Mrocza (Gm.), Matyldzin",Matyldzin,Mrocza,nakielski,kujawsko-pomorskie,,,2022-01-07 12:17:48.205 +0100,REAL_ESTATE_AGENCY,MUNICIPAL,,WATER_SUPPLY,BRICK,,NONE,,14,4,true,,1850,53.236,17.5313,1100000.0,PLN,2784.9511367664186
"Nidzicki, Kozłowo, Sarnowo",Sarnowo,Kozłowo,nidzicki,warmińsko-mazurskie,,,2022-01-07 16:42:51.439 +0100,REAL_ESTATE_AGENCY,,NONE,,,,NONE,,10,,,,,53.24597,20.26982,530000.0,PLN,1060.0
"nowosolski, Kożuchów, Drwalewice",Drwalewice,Kożuchów,nowosolski,lubuskie,,,2022-01-07 15:57:51.365 +0100,PRIVATE,,,,,,,,12,,,,,51.7454,15.5984,1330000.0,PLN,1852.367688022284
Dworek Stobnica,Stobnica,Oborniki,obornicki,wielkopolskie,,,2022-01-07 15:24:20.096 +0100,REAL_ESTATE_AGENCY,,,,,,,,18,,true,,1890,52.74216377,16.49511337,1990000.0,PLN,2211.1111111111113
"Oleśnicki, Dobroszyce, Nowosiedlice",Nowosiedlice,Dobroszyce,oleśnicki,dolnośląskie,,,2022-01-07 15:43:52.576 +0100,REAL_ESTATE_AGENCY,OTHER_HEATING,TILED_STOVE,WATER_SUPPLY,BRICK,OTHER,,,8,,true,,1890,51.2528,17.3611,259000.0,PLN,1295.0
Dworek Boksyce,Boksyce,Waśniów,ostrowiecki,świętokrzyskie,,,2022-01-07 15:24:35.109 +0100,REAL_ESTATE_AGENCY,,,WATER_SUPPLY,,,,,11,,true,,1916,50.88214,21.26102,1800000.0,PLN,2769.230769230769
Dworek Magdalenka,Magdalenka,Lesznowola,piaseczyński,mazowieckie,,,2022-01-07 15:48:55.410 +0100,REAL_ESTATE_AGENCY,,GAS_HEATING,WATER_SUPPLY,,,,,9,,true,,2018,52.095794,20.91684,2200000.0,PLN,4782.608695652174
Dworek Małyń,Małyń,Zadzim,poddębicki,łódzkie,,,2022-01-07 15:27:40.984 +0100,REAL_ESTATE_AGENCY,,,,,,,,8,,,,1994,51.78611,19.02944,500000.0,PLN,2500.0
Dworek Poznań,Poznań,Poznań,Poznań,wielkopolskie,,,2022-01-07 15:27:27.073 +0100,REAL_ESTATE_AGENCY,,,WATER_SUPPLY,,,,,7,,true,,2003,52.40970903370307,16.92585474550782,2990000.0,PLN,4814.814814814815
"Poznański, Pobiedziska",Pobiedziska,Pobiedziska,poznański,wielkopolskie,,,2022-01-07 14:44:22.265 +0100,REAL_ESTATE_AGENCY,,,,BRICK,,,,6,2,,,1874,52.47747,17.2880008,1690000.0,PLN,4828.571428571428
"Dworek, ul. Góry",Kazimierz Dolny,Kazimierz Dolny,puławski,lubelskie,Góry,,2022-01-07 15:22:09.936 +0100,PRIVATE,,,WATER_SUPPLY,,,,,10,,,true,2007,51.323543,21.992616,2770000.0,PLN,4825.783972125436
Dworek Piaseczno,Piaseczno,Jedlińsk,radomski,mazowieckie,,,2022-01-07 15:39:51.110 +0100,REAL_ESTATE_AGENCY,,GAS_HEATING,,,,,,10,,,,2009,,,3990000.0,PLN,4987.5
"Słupecki, Siernicze Wielkie",Siernicze Wielkie,Ostrowite,słupecki,wielkopolskie,,,2022-01-07 16:47:23.826 +0100,REAL_ESTATE_AGENCY,,,,,,,,10,,,,,52.4077,18.0231,349000.0,PLN,768.7224669603524
Dworek Żochy,Żochy,Kosów Lacki,sokołowski,mazowieckie,,,2022-01-07 15:25:39.031 +0100,REAL_ESTATE_AGENCY,,,,,,,,5,,,,1900,52.5663141,22.0954303,3500000.0,PLN,9459.45945945946
Dom na sprzedaż,Mosina,Dobrzany,stargardzki,zachodniopomorskie,,,2022-01-07 20:17:10.045 +0100,REAL_ESTATE_AGENCY,,,,BRICK,,OTHER,,6,,,,1830,52.15811884,16.86695337,3890000.0,PLN,9676.616915422886
"Świebodziński (pow.), Świebodzin (gm.), Świebodzin",Świebodzin,Świebodzin,świebodziński,lubuskie,,,2022-01-07 16:02:38.028 +0100,REAL_ESTATE_AGENCY,MUNICIPAL,BOILER_ROOM,WATER_SUPPLY,BRICK,,METAL,,25,,true,,1886,52.2473,15.5336,1990000.0,PLN,796.0
"Wągrowiecki (Pow.), Mieścisko (Gm.), Popowo Kościelne",Popowo Kościelne,Mieścisko,wągrowiecki,wielkopolskie,,,2022-01-07 13:13:40.944 +0100,,MUNICIPAL,BOILER_ROOM,WATER_SUPPLY,BRICK,,MESH,,15,1,true,true,1880,52.712,17.2664,2100000.0,PLN,3230.769230769231
"Warszawa, Wawer",Warszawa,Warszawa,Warszawa,mazowieckie,,,2022-01-07 16:14:33.147 +0100,REAL_ESTATE_AGENCY,GAS_HEATING,GAS_HEATING,WATER_SUPPLY,BRICK,,,,3,1,true,,1923,52.17874773,21.18704796,1580000.0,PLN,19750.0
"Włocławski, Lubraniec, Annowo",Annowo,Lubraniec,włocławski,kujawsko-pomorskie,,,2022-01-07 15:47:10.656 +0100,REAL_ESTATE_AGENCY,OTHER_HEATING,TILED_STOVE,WATER_SUPPLY,BRICK,,MESH,,4,,,,1920,52.5664154,18.7674167,199000.0,PLN,1130.6818181818182
Dworek Gulczewo,Gulczewo,Września,wrzesiński,wielkopolskie,,,2022-01-07 15:27:29.010 +0100,REAL_ESTATE_AGENCY,,,,,,,,10,,,,1890,52.38682,17.58247,1500000.0,PLN,1376.1467889908256
Dworek Puszcza Mariańska,Puszcza Mariańska,Puszcza Mariańska,żyrardowski,mazowieckie,,,2022-01-07 15:35:58.899 +0100,REAL_ESTATE_AGENCY,,,WATER_SUPPLY,,,,,21,,true,,1918,51.97801,20.35046,1250000.0,PLN,1000.0
Dworek Osieka,Osieka,Bartoszyce,bartoszycki,warmińsko-mazurskie,,,2022-01-10 07:21:21.777 +0100,REAL_ESTATE_AGENCY,,,,,,,,20,,,,1861,54.2115955,20.78388,2300000.0,PLN,2300.0
Dworek Wasilków,Wasilków,Wasilków,białostocki,podlaskie,,,2022-01-13 04:23:12.313 +0100,REAL_ESTATE_AGENCY,,,,,,,,6,,true,,1940,53.19826934,23.19375229,1150000.0,PLN,3833.3333333333335
"Dworek, Hałcnów",Bielsko-Biała,Bielsko-Biała,Bielsko-Biała,śląskie,,,2022-01-12 09:17:16.312 +0100,REAL_ESTATE_AGENCY,,,,,,,,5,,true,true,,49.84616847,19.07646692,445000.0,PLN,1271.4285714285713
Dom,Zbydniów,Łapanów,bocheński,małopolskie,,,2022-01-12 09:14:20.918 +0100,REAL_ESTATE_AGENCY,,,WATER_SUPPLY,,,,,8,,true,,1846,49.83648,20.33255,2600000.0,PLN,4333.333333333333
Dworek Bochnia,Bochnia,Bochnia m,bocheński,małopolskie,,,2022-01-13 04:20:55.167 +0100,REAL_ESTATE_AGENCY,,,,,,,,12,,,,1832,,,4000000.0,PLN,6677.79632721202
Dworek Bochnia,Bochnia,Bochnia m,bocheński,małopolskie,,,2022-01-11 13:58:20.887 +0100,REAL_ESTATE_AGENCY,,GAS_HEATING,WATER_SUPPLY,,,,,6,,,,1832,49.96922,20.42885,3995000.0,PLN,6658.333333333333
Dworek Osielsko,Osielsko,Osielsko,bydgoski,kujawsko-pomorskie,,,2022-01-10 07:29:03.397 +0100,REAL_ESTATE_AGENCY,,GAS_HEATING,WATER_SUPPLY,,,,,7,,true,,2008,53.1841113,18.0984908,4999999.0,PLN,10964.910087719298
Dworek Czarże,Czarże,Dąbrowa Chełmińska,bydgoski,kujawsko-pomorskie,,,2022-01-10 07:13:49.082 +0100,REAL_ESTATE_AGENCY,,,,,,,,,,,,2002,53.22145,18.28125,1890000.0,PLN,9219.512195121952
Dworek Brzoza,Brzoza,Nowa Wieś Wielka,bydgoski,kujawsko-pomorskie,,,2022-01-14 20:13:30.305 +0100,REAL_ESTATE_AGENCY,,,WATER_SUPPLY,,,,,13,,true,,2000,53.0302901,18.0183091,1000000.0,PLN,1538.4615384615386
"Dworek, Prądy",Bydgoszcz,Bydgoszcz,Bydgoszcz,kujawsko-pomorskie,,,2022-01-13 04:08:56.737 +0100,REAL_ESTATE_AGENCY,,GAS_HEATING,WATER_SUPPLY,,,,,,,true,,,,,2200000.0,PLN,733.3333333333334
Luksusowy dom na sprzedaż,Łaszewo,Choszczno,choszczeński,zachodniopomorskie,,,2022-01-08 17:05:45.092 +0100,REAL_ESTATE_AGENCY,,,,OTHER,,OTHER,,10,,,,1850,53.15464581,15.5702877,4500000.0,PLN,7500.0
"Choszczeński (Pow.), Pełczyce (Gm.), Jarosławsko",Jarosławsko,Pełczyce,choszczeński,zachodniopomorskie,,,2022-01-11 18:46:28.749 +0100,REAL_ESTATE_AGENCY,,,,BLOCK,,,,3,3,true,true,1990,53.0056,15.4206,1900000.0,PLN,14615.384615384615
Dworek Żochy,Żochy,Ojrzeń,ciechanowski,mazowieckie,,,2022-01-10 07:25:45.004 +0100,REAL_ESTATE_AGENCY,,,WATER_SUPPLY,,,,,8,,,,1900,52.76799,20.58585,4159000.0,PLN,6398.461538461538
"cieszyński, Brenna, Górki Wielkie",Górki Wielkie,Brenna,cieszyński,śląskie,,,2022-01-14 18:05:39.118 +0100,,OTHER_HEATING,GAS_HEATING,WATER_SUPPLY,BRICK,,OTHER,,6,,,,1734,49.7184,18.9437,1980000.0,PLN,4125.0
"cieszyński, Brenna, Górki Wielkie",Górki Wielkie,Brenna,cieszyński,śląskie,,,2022-01-14 19:09:30.066 +0100,PRIVATE,OTHER_HEATING,GAS_HEATING,WATER_SUPPLY,BRICK,,OTHER,,6,,,,1734,49.7823,18.8401,2880000.0,PLN,9600.0
"Dworek, ul. Koniecpolska",Radoszewnica,Koniecpol,częstochowski,śląskie,Koniecpolska,,2022-01-08 14:09:08.113 +0100,REAL_ESTATE_AGENCY,,,WATER_SUPPLY,,,,,18,,true,,1568,50.8046808,19.6822893,6000000.0,PLN,6382.978723404255
Dworek Kłomnice,Kłomnice,Kłomnice,częstochowski,śląskie,,,2022-01-08 14:09:15.154 +0100,REAL_ESTATE_AGENCY,,,WATER_SUPPLY,,,,,5,,,,1960,50.916459,19.3457,299000.0,PLN,1495.0
Dworek Kłomnice,Kłomnice,Kłomnice,częstochowski,śląskie,,,2022-01-10 00:34:54.614 +0100,REAL_ESTATE_AGENCY,,,WATER_SUPPLY,,,,,5,,true,,1960,50.9218266,19.3568903,279000.0,PLN,1395.0
Dom na sprzedaż,Marzewo,Pasłęk,elbląski,warmińsko-mazurskie,,,2022-01-13 01:13:27.290 +0100,REAL_ESTATE_AGENCY,,,,BRICK,,,,12,,,,1853,,,8000000.0,PLN,8196.72131147541
Dom na sprzedaż,Gdynia,Gdynia,Gdynia,pomorskie,,,2022-01-08 17:05:27.897 +0100,REAL_ESTATE_AGENCY,,,WATER_SUPPLY,OTHER,,,,8,,,,1995,54.5115647,18.5453609,7900000.0,PLN,22507.122507122505
Przepiękna nieruchomość na Mazurach/Kruklanki,Kruklanki,Kruklanki,giżycki,warmińsko-mazurskie,,,2022-01-13 09:08:37.049 +0100,REAL_ESTATE_AGENCY,,BOILER_ROOM,WATER_SUPPLY,BRICK,CERAMIC_TILE,,,7,,true,,1926,54.08805,21.92111,2500000.0,PLN,11627.906976744185
"Dworek, ul. Łąkowa",Milanówek,Milanówek,grodziski,mazowieckie,Łąkowa,,2022-01-13 04:12:02.186 +0100,REAL_ESTATE_AGENCY,,,,,,,,7,,,,2005,52.1077109,20.6786913,2200000.0,PLN,6094.182825484764
Dworek Żabia Wola,Żabia Wola,Żabia Wola,grodziski,mazowieckie,,,2022-01-10 07:29:57.885 +0100,REAL_ESTATE_AGENCY,,,WATER_SUPPLY,,,,,15,,,,1860,52.0317113,20.6909341,4700000.0,PLN,3916.6666666666665
"Grójecki, Chynów, Marianów",Marianów,Chynów,grójecki,mazowieckie,,,2022-01-09 18:18:05.689 +0100,REAL_ESTATE_AGENCY,MUNICIPAL,ELECTRIC_HEATING,WATER_SUPPLY,BLOCK,CERAMIC_TILE,MIXED,,7,4,,,1999,51.9227319,21.00727616,1900000.0,PLN,5428.571428571428
Dworek Jasiel,Jasiel,Gryfice,gryficki,zachodniopomorskie,,,2022-01-11 13:43:47.363 +0100,REAL_ESTATE_AGENCY,,,WATER_SUPPLY,,,,,8,,,,1910,53.83427,15.08817,800000.0,PLN,3200.0
Dworek Dołhobyczów,Dołhobyczów,Dołhobyczów,hrubieszowski,lubelskie,,,2022-01-08 14:03:48.749 +0100,REAL_ESTATE_AGENCY,,,,,,,,10,,,,,50.5863925,24.0351643,5500000.0,PLN,3133.1890167483193
"Dworek, Cieplice Śląskie-Zdrój",Jelenia Góra,Jelenia Góra,Jelenia Góra,dolnośląskie,,,2022-01-10 07:14:12.516 +0100,REAL_ESTATE_AGENCY,,,WATER_SUPPLY,,,,,20,,true,,1820,50.86452569999999,15.665211099999965,1600000.0,PLN,1755.30981218185
"Dworek, ul. Ściegiennego",Jelenia Góra,Jelenia Góra,Jelenia Góra,dolnośląskie,Ściegiennego,,2022-01-13 04:19:08.800 +0100,REAL_ESTATE_AGENCY,,,,,,,,20,,,,1550,50.866426,15.6795647,2800000.0,PLN,3294.1176470588234
Dworek Różanka,Różanka,Międzylesie,kłodzki,dolnośląskie,,,2022-01-10 00:19:21.440 +0100,REAL_ESTATE_AGENCY,,,,,,,,2,,,,,50.18389,16.63283,600000.0,PLN,6976.7441860465115
Dworek,Czajowice,Wielka Wieś,krakowski,małopolskie,Kasztanowa,,2022-01-08 14:26:49.093 +0100,REAL_ESTATE_AGENCY,,GAS_HEATING,WATER_SUPPLY,,,,,7,,true,,2014,50.1968541,19.7984684,1750000.0,PLN,5195.961995249406
Dworek Gubin,Gubin,Gubin m,krośnieński,lubuskie,,,2022-01-10 07:36:33.637 +0100,REAL_ESTATE_AGENCY,,GAS_HEATING,,,,,,7,,true,true,1881,51.95090439,14.72708702,1450000.0,PLN,2071.4285714285716
Dworek Kochlice,Kochlice,Miłkowice,legnicki,dolnośląskie,,,2022-01-12 09:20:53.055 +0100,REAL_ESTATE_AGENCY,,,WATER_SUPPLY,,,,,9,,true,,,51.2831023,16.155854800000043,699000.0,PLN,3328.5714285714284
Dworek Oporowo,Oporowo,Krzemieniewo,leszczyński,wielkopolskie,,,2022-01-08 14:19:13.558 +0100,REAL_ESTATE_AGENCY,,,WELL,,,,,10,,true,,1805,51.8158946,16.8518827,1200000.0,PLN,1200.0
Dworek Łódź,Łódź,Łódź,Łódź,łódzkie,,,2022-01-12 08:59:27.960 +0100,REAL_ESTATE_AGENCY,,,,,,,,25,,,,1980,,,950000.0,PLN,950.0
"Dom na sprzedaż: lubański, Świeradów-Zdrój",Świeradów-Zdrój,Świeradów-Zdrój,lubański,dolnośląskie,,,2022-01-12 08:07:13.253 +0100,PRIVATE,,,,,,,,18,,,,,50.9087,15.3431,1400000.0,PLN,700.0
"lubański, Świeradów-Zdrój",Świeradów-Zdrój,Świeradów-Zdrój,lubański,dolnośląskie,,,2022-01-11 22:26:09.014 +0100,,,,,,,,,18,,,,,50.9087,15.3431,1500000.0,PLN,750.0
Dom na sprzedaż,Olszanka,Krzczonów,lubelski,lubelskie,,,2022-01-13 01:13:23.300 +0100,REAL_ESTATE_AGENCY,,,,OTHER,,NONE,,12,,,,1810,,,2100000.0,PLN,2100.0
"kujawsko-pomorskie, mogileński, Strzelno, Strzelno",Strzelno,Strzelno,mogileński,kujawsko-pomorskie,,,2022-01-13 10:46:35.403 +0100,PRIVATE,,,WATER_SUPPLY,,,,,6,,,,2000,52.629994,18.176053,909000.0,PLN,3246.428571428572
"kujawsko-pomorskie, mogileński, Strzelno, Strzelno",Strzelno,Strzelno,mogileński,kujawsko-pomorskie,,,2022-01-13 10:25:47.329 +0100,,OTHER_HEATING,,WATER_SUPPLY,,,OTHER,,6,,,,2000,52.629994,18.176053,909000.0,PLN,
Dworek Jabłonka,Jabłonka,Nidzica,nidzicki,warmińsko-mazurskie,,,2022-01-11 14:10:21.421 +0100,REAL_ESTATE_AGENCY,,,,,,,,7,,true,,2005,53.49421,20.55524,1499000.0,PLN,3722.3739756642663
Dworek Opalenica,Opalenica,Opalenica,nowotomyski,wielkopolskie,,,2022-01-13 04:10:39.080 +0100,REAL_ESTATE_AGENCY,,,WATER_SUPPLY,,,,,16,,,,1888,,,890000.0,PLN,1780.0
Dworek Ludomy,Ludomy,Ryczywół,obornicki,wielkopolskie,,,2022-01-11 13:53:40.305 +0100,REAL_ESTATE_AGENCY,,,WATER_SUPPLY,,,,,6,,,,1830,52.74805,16.82556,995000.0,PLN,2487.5
Dworek Studzieniec,Studzieniec,Rogoźno,obornicki,wielkopolskie,,,2022-01-11 13:58:21.557 +0100,REAL_ESTATE_AGENCY,,,WATER_SUPPLY,,,,,,,true,,1850,52.6987381,17.0276482,1800000.0,PLN,3345.724907063197
Dworek Spręcowo,Spręcowo,Dywity,olsztyński,warmińsko-mazurskie,,,2022-01-12 09:33:10.541 +0100,REAL_ESTATE_AGENCY,,GAS_HEATING,WATER_SUPPLY,,,,,9,,true,,1917,53.87349,20.43204,5000000.0,PLN,7142.857142857143
"Opolski, Chodel, Ratoszyn Drugi",Ratoszyn Drugi,Chodel,opolski,lubelskie,,,2022-01-11 14:16:35.614 +0100,REAL_ESTATE_AGENCY,,,,,,,,,,true,,,51.07366,22.17546,1450000.0,PLN,2071.428571428572
Dworek Książnik,Książnik,Miłakowo,ostródzki,warmińsko-mazurskie,,,2022-01-10 07:28:21.291 +0100,REAL_ESTATE_AGENCY,,,,,,,,10,,,,1770,53.9671,20.0743,3100000.0,PLN,3263.157894736842
Dworek Kołbiel,Kołbiel,Kołbiel,otwocki,mazowieckie,,,2022-01-13 04:10:30.503 +0100,REAL_ESTATE_AGENCY,,GAS_HEATING,WATER_SUPPLY,,,,,6,,,,2002,52.06366,21.48188,1199000.0,PLN,3633.3333333333335
Dworek Radoszewice,Radoszewice,Siemkowice,pajęczański,łódzkie,,,2022-01-10 00:18:38.996 +0100,REAL_ESTATE_AGENCY,,,WATER_SUPPLY,,,,,10,,,,,51.2506377,18.8371838,2700000.0,PLN,4500.0
Dworek Dębówka,Dębówka,Konstancin-Jeziorna,piaseczyński,mazowieckie,,,2022-01-13 04:17:25.167 +0100,REAL_ESTATE_AGENCY,,,WATER_SUPPLY,,,,,6,,,,2010,52.0502562,21.1907253,3000000.0,PLN,4285.714285714285
Dworek Konstancin-Jeziorna,Konstancin-Jeziorna,Konstancin-Jeziorna,piaseczyński,mazowieckie,,,2022-01-13 04:17:55.960 +0100,REAL_ESTATE_AGENCY,,GAS_HEATING,,,,,,7,,,,2010,,,2500000.0,PLN,7812.5
Dworek Zalesie Górne,Zalesie Górne,Piaseczno,piaseczyński,mazowieckie,,,2022-01-10 00:26:05.935 +0100,REAL_ESTATE_AGENCY,,GAS_HEATING,,,,,,7,,,,2004,52.027408,21.0366964,1330000.0,PLN,5018.867924528302
Dworek Chlebno,Chlebno,Łobżenica,pilski,wielkopolskie,,,2022-01-08 14:12:14.746 +0100,REAL_ESTATE_AGENCY,,,WATER_SUPPLY,,,,,6,,,,,53.264,17.31213,599000.0,PLN,3203.2085561497324
Dworek,Jakubowice,Proszowice,proszowicki,małopolskie,,,2022-01-11 14:18:17.794 +0100,REAL_ESTATE_AGENCY,,,WATER_SUPPLY,,,,,8,,,,1760,50.186557583419045,20.321851301327506,1150000.0,PLN,2300.0
Dworek Komorów,Komorów,Michałowice,pruszkowski,mazowieckie,,,2022-01-10 07:18:12.608 +0100,REAL_ESTATE_AGENCY,,,,,,,,22,,true,,1915,52.1446983,20.8156334,2998000.0,PLN,6433.476394849786
Dworek Michałowice,Michałowice,Michałowice,pruszkowski,mazowieckie,,,2022-01-13 04:11:00.440 +0100,REAL_ESTATE_AGENCY,,,,,,,,6,,,,2005,52.17,20.883333,2670000.0,PLN,6013.513513513513
"Dworek, ul. Pałacowa",Wojnowice,Krzanowice,raciborski,śląskie,Pałacowa,,2022-01-08 14:08:06.992 +0100,REAL_ESTATE_AGENCY,,,WATER_SUPPLY,,,,,,,true,,,50.0609612,18.1528406,4500000.0,PLN,2284.263959390863
"Radzyński (Pow.), Borki (Gm.), Sitno",Sitno,Borki,radzyński,lubelskie,,,2022-01-10 20:27:17.895 +0100,REAL_ESTATE_AGENCY,MUNICIPAL,,WATER_SUPPLY,,,,,16,,false,,,51.7456,22.5392,3950000.0,PLN,9518.072289156626
Dworek,Potęgowo,Potęgowo,słupski,pomorskie,,,2022-01-13 15:56:08.535 +0100,REAL_ESTATE_AGENCY,,,WATER_SUPPLY,,,,,10,,,,1990,54.48193,17.49114,1224000.0,PLN,2497.9591836734694
Dworek Ujazd Dolny,Ujazd Dolny,Udanin,średzki,dolnośląskie,,,2022-01-10 07:28:56.032 +0100,REAL_ESTATE_AGENCY,,,WATER_SUPPLY,,,,,13,,,,1835,51.0983,16.501296,1530000.0,PLN,2567.1140939597317
Dworek Brodnica,Brodnica,Brodnica,śremski,wielkopolskie,,,2022-01-12 08:53:36.837 +0100,REAL_ESTATE_AGENCY,,,,,,,,10,,true,true,1850,52.14171,16.89253,4900000.0,PLN,9664.694280078895
Dworek Drezdenko,Drezdenko,Drezdenko,strzelecko-drezdenecki,lubuskie,,,2022-01-10 00:09:34.006 +0100,REAL_ESTATE_AGENCY,,,,,,,,16,,true,,,,,1500000.0,PLN,2173.913043478261
Dworek Świdnica,Świdnica,Świdnica m,świdnicki,dolnośląskie,,,2022-01-10 07:25:59.887 +0100,REAL_ESTATE_AGENCY,,,,,,,,1,,,,2010,,,1300000.0,PLN,3823.529411764706
Dworek Sztum,Sztum,Sztum,sztumski,pomorskie,,,2022-01-10 07:35:14.238 +0100,REAL_ESTATE_AGENCY,,,WELL,,,,,10,,true,,,53.95139493751479,19.012015189257824,1200000.0,PLN,5263.1578947368425
"Dom na sprzedaż: Tarnowski, Tuchów, Karwodrza",Karwodrza,Tuchów,tarnowski,małopolskie,,,2022-01-14 13:23:21.039 +0100,REAL_ESTATE_AGENCY,MUNICIPAL,,WATER_SUPPLY,,CERAMIC_TILE,,,5,,,true,2021,49.9251,21.0715,459000.0,PLN,2390.625
Dworek Bistuszowa,Bistuszowa,Ryglice,tarnowski,małopolskie,,,2022-01-12 08:53:51.495 +0100,REAL_ESTATE_AGENCY,,GAS_HEATING,WELL,,,,,4,,,true,1920,49.8850809,21.0938468,650000.0,PLN,3611.1111111111113
"Dworek, ul. Czatkowska",Tczew,Tczew m,tczewski,pomorskie,Czatkowska,,2022-01-10 00:25:38.391 +0100,REAL_ESTATE_AGENCY,,,WATER_SUPPLY,,,,,10,,true,,1930,54.114555,18.8036385,1100000.0,PLN,3584.1126063015213
Dom Młyniec Drugi,Młyniec Drugi,Lubicz,toruński,kujawsko-pomorskie,,,2022-01-08 14:21:22.743 +0100,REAL_ESTATE_AGENCY,,,WATER_SUPPLY,,,,,12,,,,1996,53.0639,18.81,7990000.0,PLN,9987.5
"Dworek Ochota, ul. Bielska",Warszawa,Warszawa,Warszawa,mazowieckie,Bielska,,2022-01-10 00:16:11.678 +0100,REAL_ESTATE_AGENCY,,GAS_HEATING,,,,,,5,,true,,2000,52.19840915,20.96222691,3295000.0,PLN,8531.848783013982
Dom na sprzedaż,Potęgowo,Linia,wejherowski,pomorskie,,,2022-01-13 13:17:10.068 +0100,REAL_ESTATE_AGENCY,,,,BRICK,,OTHER,,,,,,,,,1224000.0,PLN,2497.9591836734694
Dworek Chodecz,Chodecz,Chodecz,włocławski,kujawsko-pomorskie,,,2022-01-11 14:09:16.590 +0100,REAL_ESTATE_AGENCY,,,WATER_SUPPLY,,,,,4,,true,,1900,,,1060000.0,PLN,2639.836628978433
"Dworek, ul. Kasztanowa",Ślężany,Dąbrówka,wołomiński,mazowieckie,Kasztanowa,,2022-01-10 00:35:01.677 +0100,REAL_ESTATE_AGENCY,,,,,,,,11,,,,1870,52.5303331,21.24928052,7800000.0,PLN,6776.715899218071
Dworek Wrocław,Wrocław,Wrocław,Wrocław,dolnośląskie,,,2022-01-10 00:14:50.050 +0100,REAL_ESTATE_AGENCY,,,WATER_SUPPLY,,,,,6,,,,1900,,,990000.0,PLN,2911.764705882353
Dworek Nadolice Wielkie,Nadolice Wielkie,Czernica,wrocławski,dolnośląskie,,,2022-01-11 14:09:34.635 +0100,REAL_ESTATE_AGENCY,,,WATER_SUPPLY,,,,,10,,,,,51.0840384,17.2382446,1100000.0,PLN,2444.4444444444443
"Zgierski, Aleksandrów Łódzki",Aleksandrów Łódzki,Aleksandrów Łódzki,zgierski,łódzkie,,,2022-01-10 15:16:53.136 +0100,REAL_ESTATE_AGENCY,,,,BRICK,,,,5,,,,2010,51.8256995,19.30619717,1250000.0,PLN,5208.333333333333
Dworek Andrzejów,Andrzejów,Przyłęk,zwoleński,mazowieckie,,,2022-01-11 14:22:56.224 +0100,REAL_ESTATE_AGENCY,,,,,,,,5,,,,,51.2878213,21.7512935,1500000.0,PLN,5000.0
Dom,Grubno,Stolno,chełmiński,kujawsko-pomorskie,,,2022-01-17 07:23:09.345 +0100,REAL_ESTATE_AGENCY,,,WATER_SUPPLY,,,,,1,,true,,1423,53.3367386,18.4681175,1540000.0,PLN,885.2609795355255
Dworek Kulik-Kolonia,Kulik-Kolonia,Siedliszcze,chełmski,lubelskie,,,2022-01-18 06:38:36.480 +0100,REAL_ESTATE_AGENCY,,,,,,,,3,,,,,51.2435344,23.1949895,1400000.0,PLN,155.55555555555554
"cieszyński, Brenna, Górki Wielkie",Górki Wielkie,Brenna,cieszyński,śląskie,,,2022-01-19 13:46:55.661 +0100,PRIVATE,,,WATER_SUPPLY,BRICK,,,,6,,,,1734,49.7184,18.9437,1980000.0,PLN,6600.0
Dworek Pieszyce,Pieszyce,Pieszyce,dzierżoniowski,dolnośląskie,,,2022-01-15 07:17:39.453 +0100,REAL_ESTATE_AGENCY,,,,,,,,12,,true,,,,,1000000.0,PLN,1754.3859649122808
"Elbląski, Pasłęk, Marzewo",Marzewo,Pasłęk,elbląski,warmińsko-mazurskie,Elbląski,,2022-01-16 16:21:11.904 +0100,REAL_ESTATE_AGENCY,,BOILER_ROOM,,BRICK,,,,8,3,true,true,1853,53.97444,19.68476,7500000.0,PLN,7684.426229508197
"Elbląski, Gronowo Elbląskie, Różany",Różany,Gronowo Elbląskie,elbląski,warmińsko-mazurskie,Elbląski,,2022-01-19 15:51:13.056 +0100,,,,,BRICK,,MESH,,4,1,,,1777,54.0718546,19.3215934,349000.0,PLN,969.4444444444443
"Górowski, Wąsosz, Kąkolno, Kąkolno, Kąkolno",Kąkolno,Wąsosz,górowski,dolnośląskie,,,2022-01-19 20:05:46.583 +0100,,,OTHER_HEATING,WATER_SUPPLY,,CERAMIC_TILE,,,8,,true,,1998,51.56527,16.81047,6500000.0,PLN,13541.666666666666
Dworek Grodzisk Mazowiecki,Grodzisk Mazowiecki,Grodzisk Mazowiecki,grodziski,mazowieckie,,,2022-01-15 07:23:31.643 +0100,REAL_ESTATE_AGENCY,,GAS_HEATING,,,,,,5,,,,2013,,,1200000.0,PLN,7500.0
Dworek Grzegorzewice,Grzegorzewice,Żabia Wola,grodziski,mazowieckie,,,2022-01-15 07:23:54.366 +0100,REAL_ESTATE_AGENCY,,,WATER_SUPPLY,,,,,14,,true,,1998,,,7500000.0,PLN,5357.142857142857
Dworek Marianów,Marianów,Grójec,grójecki,mazowieckie,,,2022-01-16 04:19:24.600 +0100,REAL_ESTATE_AGENCY,,,WATER_SUPPLY,,,,,9,,,,1999,51.9207699,21.0075707,2300000.0,PLN,6571.428571428572
Dworek Zborów,Zborów,Żelazków,kaliski,wielkopolskie,,,2022-01-21 16:41:28.065 +0100,REAL_ESTATE_AGENCY,,,WATER_SUPPLY,,,,,,,,,1850,51.8463956,18.2006902,9900000.0,PLN,4950.0
"Kalisz, Majków, Juliana Tuwima",Kalisz,Kalisz,Kalisz,wielkopolskie,Juliana Tuwima,,2022-01-19 21:50:53.760 +0100,,MUNICIPAL,,WATER_SUPPLY,BRICK,,,,10,,,,1822,51.7776,18.0768,2900000.0,PLN,3783.431180691455
Dworek Kamień Pomorski,Kamień Pomorski,Kamień Pomorski,kamieński,zachodniopomorskie,,,2022-01-19 17:47:36.111 +0100,REAL_ESTATE_AGENCY,,,WATER_SUPPLY,,,,,21,,true,,1780,53.9672519,14.7714251,3500000.0,PLN,2916.6666666666665
"Kraków, Stare Miasto",Kraków,Kraków,Kraków,małopolskie,,,2022-01-17 23:50:21.266 +0100,,,,,,,,,10,,,,,50.0605,19.9417,1320000.0,PLN,2640.0
Dworek Zdzieszowice,Zdzieszowice,Zdzieszowice,krapkowicki,opolskie,,,2022-01-17 07:20:40.232 +0100,REAL_ESTATE_AGENCY,,,,,,,,,,,,,50.42422,18.12477,2500000.0,PLN,5000.0
Dworek Panoszów,Panoszów,Ciasna,lubliniecki,śląskie,,,2022-01-21 16:50:59.881 +0100,REAL_ESTATE_AGENCY,,,WATER_SUPPLY,,,,,,,true,,1880,50.8135372,18.633897,348000.0,PLN,725.0
"Dom, 280 m2, Strzelno",Strzelno,Strzelno,mogileński,kujawsko-pomorskie,,,2022-01-15 10:32:13.041 +0100,PRIVATE,,,WATER_SUPPLY,,CERAMIC_TILE,,,6,,,,2000,52.62999,18.17605,879000.0,PLN,3139.285714285714
Dworek Mirów,Mirów,Niegowa,myszkowski,śląskie,,,2022-01-16 04:32:52.546 +0100,REAL_ESTATE_AGENCY,,,,,,,,5,,,,,,,1490000.0,PLN,9933.333333333334
"Dworek, ul. Kasztanowa",Cybulice Małe,Czosnów,nowodworski,mazowieckie,Kasztanowa,,2022-01-17 07:22:51.751 +0100,REAL_ESTATE_AGENCY,,GAS_HEATING,,,,,,9,,,,2005,52.3906844,20.6439009,2300000.0,PLN,6216.216216216216
Dworek Góra Kalwaria,Góra Kalwaria,Góra Kalwaria,piaseczyński,mazowieckie,,,2022-01-18 06:44:49.526 +0100,REAL_ESTATE_AGENCY,,,,,,,,6,,true,,2002,,,1100000.0,PLN,2511.415525114155
Dworek Dziwle,Dziwle,Grabica,piotrkowski,łódzkie,,,2022-01-21 16:42:47.378 +0100,REAL_ESTATE_AGENCY,,,,,,,,17,,true,,1850,51.5195975,19.5247797,5200000.0,PLN,114.03508771929825
"sieradzki, Sieradz, Chojne",Chojne,Sieradz,sieradzki,łódzkie,,,2022-01-20 15:07:24.898 +0100,,OTHER_HEATING,NONE,WATER_SUPPLY,BRICK,,MESH,,10,,true,,1672,51.5386,18.808,2900000.0,PLN,4205.946337926033
Dworek,Góra,Śrem,śremski,wielkopolskie,,,2022-01-19 17:49:59.709 +0100,REAL_ESTATE_AGENCY,,,WATER_SUPPLY,,,,,10,,,,1900,52.1231,16.98397,6500000.0,PLN,3333.3333333333335
Dworek Kondratowice,Kondratowice,Kondratowice,strzeliński,dolnośląskie,,,2022-01-20 06:13:03.613 +0100,REAL_ESTATE_AGENCY,,,,,,,,6,,,,1900,50.7736541,16.9272857,950000.0,PLN,3321.6783216783215
"Dworek, ul. Leśna",Obrzycko,Obrzycko m,szamotulski,wielkopolskie,Leśna,,2022-01-21 16:48:21.077 +0100,REAL_ESTATE_AGENCY,,,WATER_SUPPLY,,,,,18,,true,,1890,52.7069189,16.5170591,1990000.0,PLN,2211.1111111111113
Dworek,Wisznia Mała,Wisznia Mała,trzebnicki,dolnośląskie,Wrocławska,,2022-01-19 17:41:53.787 +0100,REAL_ESTATE_AGENCY,,,WATER_SUPPLY,,,,,50,,,true,1588,,,4000000.0,PLN,11428.57142857143
Dworek Marianów,Marianów,Leszno,warszawski zachodni,mazowieckie,,,2022-01-18 06:44:51.227 +0100,REAL_ESTATE_AGENCY,,,WATER_SUPPLY,,,,,6,,,,,52.264715,20.5613956,1150000.0,PLN,4107.142857142857
"Dworek, Michelin",Włocławek,Włocławek m,Włocławek,kujawsko-pomorskie,,,2022-01-17 07:26:57.846 +0100,REAL_ESTATE_AGENCY,,GAS_HEATING,WATER_SUPPLY,,,,,5,,true,,,,,890000.0,PLN,4139.53488372093
Dworek Jędrzychowice,Jędrzychowice,Szlichtyngowa,wschowski,lubuskie,,,2022-01-17 07:36:20.054 +0100,REAL_ESTATE_AGENCY,,,,,,,,30,,true,,1920,51.73756,16.29394,690000.0,PLN,412.6596813549591
Dworek Czyżew,Czyżew,Czyżew,wysokomazowiecki,podlaskie,,,2022-01-20 06:22:40.726 +0100,REAL_ESTATE_AGENCY,,,,,,,,12,,true,,2005,52.79637849,22.33408928,1990000.0,PLN,2211.1111111111113
Dworek Wojcieszów,Wojcieszów,Wojcieszów,złotoryjski,dolnośląskie,,,2022-01-18 06:51:55.142 +0100,REAL_ESTATE_AGENCY,,,WATER_SUPPLY,,,,,23,,true,true,,50.95167,15.92209,875000.0,PLN,678.2945736434109
Dom na sprzedaż,Opalenica,Brodnica,brodnicki,kujawsko-pomorskie,,,2022-01-28 15:12:45.246 +0100,REAL_ESTATE_AGENCY,,,,OTHER,,OTHER,,16,,,,1888,,,890000.0,PLN,1780.0
Dworek Bydgoszcz,Bydgoszcz,Bydgoszcz,Bydgoszcz,kujawsko-pomorskie,,,2022-01-22 06:38:54.183 +0100,REAL_ESTATE_AGENCY,,,WATER_SUPPLY,,,,,15,,true,,1850,,,4500000.0,PLN,7097.567900066244
Dworek Łęki Dolne,Łęki Dolne,Pilzno,dębicki,podkarpackie,,,2022-01-24 06:55:09.891 +0100,REAL_ESTATE_AGENCY,,,,,,,,4,,,,2015,49.97244735,21.24201842,1500000.0,PLN,11194.029850746268
Dworek Zagórzany,Zagórzany,Gorlice,gorlicki,małopolskie,,,2022-01-24 07:07:10.828 +0100,REAL_ESTATE_AGENCY,,MUNICIPAL,WATER_SUPPLY,,,,,30,,true,,1834,49.696631,21.190374,6900000.0,PLN,2315.4362416107383
Dworek Żuchlów,Żuchlów,Niechlów,górowski,dolnośląskie,,,2022-01-23 15:48:38.112 +0100,PRIVATE,,,WATER_SUPPLY,,,,,15,,,,1791,51.6787596,16.4039353,800000.0,PLN,800.0
"gostyński, Pępowo, Skoraszewice, 
Brodniczka 16 Pałac",Pępowo,Pępowo,gostyński,wielkopolskie,Brodniczka 16,,2022-01-26 00:32:22.973 +0100,PRIVATE,,,,,,,,14,,,,,51.7598,17.1197,1480000.0,PLN,1850.0
"gostyński, Pępowo, Skoraszewice, Brodniczka 16",Skoraszewice,Pępowo,gostyński,wielkopolskie,Brodniczka,"16",2022-01-26 00:50:23.271 +0100,,,,,,,,,14,,,,,51.7598,17.1197,1480000.0,PLN,1281.3852813852814
Dworek Krążkowo,Krążkowo,Złotniki Kujawskie,inowrocławski,kujawsko-pomorskie,,,2022-01-24 07:16:48.766 +0100,REAL_ESTATE_AGENCY,,,,,,,,5,,true,,,52.9449586,18.0712875,690000.0,PLN,2300.0
"Kaliski, Żelazków, Zborów",Zborów,Żelazków,kaliski,wielkopolskie,Kaliski,,2022-01-28 11:05:37.375 +0100,,,,,,,OTHER,,,,,,1850,,,9500000.0,PLN,4750.0
Dworek,Kolbuszowa,Kolbuszowa,kolbuszowski,podkarpackie,Obrońców Pokoju,,2022-01-24 07:10:39.435 +0100,REAL_ESTATE_AGENCY,,GAS_HEATING,WATER_SUPPLY,,,,,9,,,true,1903,50.2402288,21.7568589,1799000.0,PLN,2738.20395738204
Dom na sprzedaż,Żelazno,Krzywiń,kościański,wielkopolskie,,,2022-01-27 10:08:04.314 +0100,REAL_ESTATE_AGENCY,,,,BRICK,,OTHER,,,,,,1800,,,5500000.0,PLN,1406.746757448724
Dom na sprzedaż,Strzepowo,Będzino,koszaliński,zachodniopomorskie,,,2022-01-25 17:11:35.343 +0100,REAL_ESTATE_AGENCY,,,,OTHER,,OTHER,,30,,,,,,,500000.0,PLN,166.66666666666666
Dworek Pątnówek,Pątnówek,Miłkowice,legnicki,dolnośląskie,,,2022-01-22 06:56:23.310 +0100,REAL_ESTATE_AGENCY,,,,,,,,16,,,,1834,51.2453371,16.1297296,2020000.0,PLN,2244.4444444444443
Dworek Biskupie,Biskupie,Wysokie,lubelski,lubelskie,,,2022-01-24 06:52:24.202 +0100,REAL_ESTATE_AGENCY,,,WATER_SUPPLY,,,,,10,,true,,1965,50.8630753,22.6502919,595000.0,PLN,1072.0720720720722
Dom na sprzedaż,Żary,Rząśnia,pajęczański,łódzkie,,,2022-01-25 23:04:22.795 +0100,REAL_ESTATE_AGENCY,,,,OTHER,,OTHER,,6,,,,,,,1500000.0,PLN,3125.0
Dworek Wojnowice,Wojnowice,Krzanowice,raciborski,śląskie,,,2022-01-22 06:53:40.995 +0100,REAL_ESTATE_AGENCY,,,,,,,,,,true,,,50.061669212416675,18.154669777246227,1500000.0,PLN,761.4213197969543
Dom na sprzedaż,Paprotnia,Paprotnia,siedlecki,mazowieckie,,,2022-01-28 15:13:15.165 +0100,REAL_ESTATE_AGENCY,,,,CONCRETE,,NONE,,7,,,,,,,1200000.0,PLN,2569.593147751606
Dworek Chaławy,Chaławy,Brodnica,śremski,wielkopolskie,,,2022-01-24 06:54:20.331 +0100,REAL_ESTATE_AGENCY,,,,,,,,16,,,,2004,52.12538,16.85144,4500000.0,PLN,4500.0
Dworek Brześnica,Brześnica,Dolsk,śremski,wielkopolskie,,,2022-01-26 15:53:36.705 +0100,REAL_ESTATE_AGENCY,,,,,,,,19,,true,,1865,51.95736,17.13958,1600000.0,PLN,1777.7777777777778
Dom Lipnica,Lipnica,Dębowa Łąka,wąbrzeski,kujawsko-pomorskie,,,2022-01-27 04:53:12.991 +0100,REAL_ESTATE_AGENCY,,,WATER_SUPPLY,,,,,12,,true,,1111,53.188611,19.043333,680000.0,PLN,1889.518728465044
Dworek Nowy Łuszczewek,Nowy Łuszczewek,Błonie,warszawski zachodni,mazowieckie,,,2022-01-25 04:36:27.926 +0100,REAL_ESTATE_AGENCY,,,,,,,,10,,,,,52.2224684,20.511197,4500000.0,PLN,9782.608695652174
Dom na sprzedaż,Żerków,Brzeg Dolny,wołowski,dolnośląskie,,,2022-01-28 15:12:43.722 +0100,REAL_ESTATE_AGENCY,,,,BRICK,,OTHER,,5,,,,1924,,,399000.0,PLN,1375.8620689655172
Dom na sprzedaż,Stoszowice,Stoszowice,ząbkowicki,dolnośląskie,,,2022-01-26 19:14:24.423 +0100,REAL_ESTATE_AGENCY,,,,OTHER,,OTHER,,10,,,,,,,750000.0,PLN,117.1875
Dom na sprzedaż,Czerwieńsk,Czerwieńsk,zielonogórski,lubuskie,,,2022-01-25 23:04:24.166 +0100,REAL_ESTATE_AGENCY,,,,OTHER,,OTHER,,10,,,,,,,290000.0,PLN,446.1538461538461
"Dworek, Zakanale",Gorzów Wielkopolski,Gorzów Wielkopolski,Gorzów Wielkopolski,lubuskie,Zakanale,,2022-02-03 06:55:07.339 +0100,REAL_ESTATE_AGENCY,,GAS_HEATING,WATER_SUPPLY,,,,,7,,,,2005,,,270000.0,PLN,750.0
Dworek Chynów,Chynów,Chynów,grójecki,mazowieckie,,,2022-01-31 18:54:10.669 +0100,REAL_ESTATE_AGENCY,,,WATER_SUPPLY,,,,,9,,,,1999,51.922732,21.00727,2300000.0,PLN,6571.428571428572
"Dom na sprzedaż: warmińsko-mazurskie, iławski, Zalewo, Jaśkowo",Jaśkowo,Zalewo,iławski,warmińsko-mazurskie,,,2022-01-30 18:05:25.720 +0100,PRIVATE,,,,BRICK,,,,,,,,1722,52.0977181,19.0258159,3490000.0,PLN,
"Dom na sprzedaż: dolnośląskie, jeleniogórski, Jeżów Sudecki, Dziwiszów",Dziwiszów,Jeżów Sudecki,jeleniogórski,dolnośląskie,,,2022-01-29 22:07:54.539 +0100,PRIVATE,,,,,,,,,,,,,50.940946,15.79688,5150000.0,PLN,
Dworek Garbno,Garbno,Korsze,kętrzyński,warmińsko-mazurskie,,,2022-01-31 18:57:55.411 +0100,REAL_ESTATE_AGENCY,,,WATER_SUPPLY,,,,,,,true,,,54.1320491,21.2802506,5625000.0,PLN,1250.0
Dom na sprzedaż,Teodorówka,Dukla,krośnieński,podkarpackie,,,2022-02-04 01:14:17.988 +0100,REAL_ESTATE_AGENCY,,,,OTHER,,OTHER,,5,,,,2020,,,750000.0,PLN,5000.0
Dworek Dobra,Dobra,Dobra,łobeski,zachodniopomorskie,,,2022-02-04 04:28:25.288 +0100,REAL_ESTATE_AGENCY,,,,,,,,8,,,,,,,499000.0,PLN,138.61111111111111
Dworek Malbork,Malbork,Malbork m,malborski,pomorskie,,,2022-02-02 15:32:37.590 +0100,REAL_ESTATE_AGENCY,,,WELL,,,,,10,,true,,,53.951878225181666,19.012055432080096,1200000.0,PLN,5263.1578947368425
Dworek Przemyśl,Przemyśl,Przemyśl m,Przemyśl,podkarpackie,,,2022-01-29 09:24:28.227 +0100,REAL_ESTATE_AGENCY,,GAS_HEATING,,,,,,5,,true,,2012,49.78883089,22.72702217,1295000.0,PLN,5557.93991416309
"pomorskie, pucki, Kosakowo, Pogórze, Andaluzyjska 5",Kosakowo,Kosakowo,pucki,pomorskie,Andaluzyjska,,2022-02-04 14:16:45.504 +0100,REAL_ESTATE_AGENCY,,,,,,,,8,,,,,54.57170376,18.48123353,7500000.0,PLN,12417.218543046358
"Radomszczański (Pow.), Żytno (Gm.), Sudzin",Sudzin,Żytno,radomszczański,łódzkie,,,2022-02-02 11:11:37.974 +0100,,MUNICIPAL,BOILER_ROOM,WATER_SUPPLY,BRICK,,OTHER,,7,1,,,1957,50.9411,19.8401,550000.0,PLN,2619.0476190476197
Dworek,Sochaczew,Sochaczew m,sochaczewski,mazowieckie,Hotelowa,,2022-01-29 14:47:44.630 +0100,REAL_ESTATE_AGENCY,,,WATER_SUPPLY,,,,,15,,true,true,1820,52.25388,20.28163,1250000.0,PLN,2097.3154362416108
"Dworek, Gocław",Szczecin,Szczecin,Szczecin,zachodniopomorskie,,,2022-02-03 18:28:54.632 +0100,REAL_ESTATE_AGENCY,,GAS_HEATING,,,,,,15,,,,1984,,,1700000.0,PLN,3333.3333333333335
Dom na sprzedaż,Bistuszowa,Ryglice,tarnowski,małopolskie,,,2022-02-02 15:11:24.560 +0100,REAL_ESTATE_AGENCY,,,,WOOD,,MESH,,4,,,,1920,,,660000.0,PLN,3666.6666666666665
Dworek Żary,Żary,Żary m,żarski,lubuskie,,,2022-01-31 18:37:04.821 +0100,REAL_ESTATE_AGENCY,,,,,,,,5,,,,,,,850000.0,PLN,4473.684210526316
Dworek,Ogrodzieniec,Ogrodzieniec,zawierciański,śląskie,,,2022-01-30 06:18:25.792 +0100,REAL_ESTATE_AGENCY,,,,,,,,8,,,,,50.4531127,19.5520942,630000.0,PLN,1260.0
"aleksandrowski, Ciechocinek, Norwida",Ciechocinek,Ciechocinek,aleksandrowski,kujawsko-pomorskie,Norwida,,2022-02-08 14:04:54.128 +0100,,OTHER_HEATING,GAS_HEATING,WATER_SUPPLY,,,OTHER,,6,,true,,2005,52.8798,18.8065,1950000.0,PLN,4936.708860759493
"Dom na sprzedaż: bielski, Szczyrk, Górki Wielkie",Szczyrk,Szczyrk,bielski,śląskie,,,2022-02-07 03:05:34.706 +0100,PRIVATE,OTHER_HEATING,GAS_HEATING,WATER_SUPPLY,BRICK,,OTHER,,6,,,,1734,49.715,19.0236,2580000.0,PLN,5375.0
Dworek Wielkie Leźno,Wielkie Leźno,Brzozie,brodnicki,kujawsko-pomorskie,,,2022-02-09 04:21:55.647 +0100,REAL_ESTATE_AGENCY,,,WELL,,,,,7,,true,,2007,53.29754,19.70839,4550000.0,PLN,8425.925925925925
Dworek Lubasz,Lubasz,Szczucin,dąbrowski,małopolskie,,,2022-02-08 15:57:21.829 +0100,REAL_ESTATE_AGENCY,,GAS_HEATING,WATER_SUPPLY,,,,,14,,true,,1920,50.302459,21.04697,3990000.0,PLN,6435.4838709677415
Dom na sprzedaż,Owczarnia,Pasłęk,elbląski,warmińsko-mazurskie,,,2022-02-08 05:38:22.729 +0100,REAL_ESTATE_AGENCY,,,,BLOCK,,OTHER,,5,,,,1959,,,795000.0,PLN,6360.0
"gdański, Trąbki Wielkie, Mierzeszyn",Mierzeszyn,Trąbki Wielkie,gdański,pomorskie,,,2022-02-08 12:03:57.099 +0100,,,,,,,,,5,,,,,54.1938,18.4217,1200000.0,PLN,9836.065573770491
Dworek Wierzyce,Wierzyce,Łubowo,gnieźnieński,wielkopolskie,,,2022-02-09 04:12:39.507 +0100,REAL_ESTATE_AGENCY,,,WATER_SUPPLY,,,,,14,,true,true,1860,52.45476891753666,17.387065409570315,2500000.0,PLN,5230.125523012553
"świętokrzyskie, kielecki, Morawica, Bilcza",Bilcza,Morawica,kielecki,świętokrzyskie,,,2022-02-05 16:25:27.685 +0100,PRIVATE,,,,,,MESH,,8,,,,1997,50.786,20.616515,8950000.0,PLN,
Dom na sprzedaż,Antoniew,Lutomiersk,pabianicki,łódzkie,,,2022-02-08 17:13:40.155 +0100,,,,,YTONG,,OTHER,,6,,,,2020,,,325000.0,PLN,1625.0
Dworek Konstancin-Jeziorna,Konstancin-Jeziorna,Konstancin-Jeziorna,piaseczyński,mazowieckie,,,2022-02-09 16:45:53.923 +0100,REAL_ESTATE_AGENCY,,,WATER_SUPPLY,,,,,16,,,true,1990,52.0938717,21.117722,5900000.0,PLN,5483.271375464684
Dworek Konstancin-Jeziorna,Konstancin-Jeziorna,Konstancin-Jeziorna,piaseczyński,mazowieckie,,,2022-02-11 06:48:30.842 +0100,REAL_ESTATE_AGENCY,,,,,,,,8,,true,,1900,,,3400000.0,PLN,9714.285714285714
Dworek Jezierzyce,Jezierzyce,Rąbino,świdwiński,zachodniopomorskie,,,2022-02-07 19:37:21.674 +0100,REAL_ESTATE_AGENCY,,,WATER_SUPPLY,,,,,20,,,,1920,53.8155799,15.9766785,950000.0,PLN,950.0
Dworek,Warszawa,Warszawa,Warszawa,mazowieckie,,,2022-02-07 19:36:18.964 +0100,REAL_ESTATE_AGENCY,,,WATER_SUPPLY,,,,,6,,,,2008,52.146852,21.13365,2999000.0,PLN,11534.615384615385
Dworek Kierzkowo,Kierzkowo,Choczewo,wejherowski,pomorskie,,,2022-02-05 05:27:31.069 +0100,REAL_ESTATE_AGENCY,,,,,,,,10,,true,,,54.7671942,17.8733195,3750000.0,PLN,12500.0
Dworek Starowola,Starowola,Jadów,wołomiński,mazowieckie,,,2022-02-05 05:21:47.402 +0100,REAL_ESTATE_AGENCY,,,,,,,,15,,,,2013,52.4942557,21.70052,5000000.0,PLN,6250.0
"żarski, Przewóz, Pałac Sobolice, Sobolice 16",Przewóz,Przewóz,żarski,lubuskie,,,2022-02-06 00:02:43.968 +0100,PRIVATE,,,,,,,,24,,,,,51.4806,14.9542,2500000.0,PLN,1329.0802764486975
"żarski, Przewóz, Pałac Sobolice, Sobolice",Sobolice,Przewóz,żarski,lubuskie,,,2022-02-06 04:34:15.383 +0100,PRIVATE,,,,,,,,24,,,,,51.4806,14.9542,2500000.0,PLN,1329.0802764486975
"Żyrardowski, Wiskitki, Antoniew",Antoniew,Wiskitki,żyrardowski,mazowieckie,,,2022-02-08 15:25:48.615 +0100,,MUNICIPAL,,WATER_SUPPLY,YTONG,,,,6,2,,,2020,52.0396,20.32871,325000.0,PLN,2868.4907325684026
Dworek Międzyrzecze Górne,Międzyrzecze Górne,Jasienica,bielski,śląskie,,,2022-02-16 06:37:20.506 +0100,REAL_ESTATE_AGENCY,,,,,,,,1,,true,,1861,49.84,18.9392,299000.0,PLN,1465.686274509804
Zespół pałacowo-folwarczny Tomaszów Bolesławiecki,Tomaszów Bolesławiecki,Warta Bolesławiecka,bolesławiecki,dolnośląskie,,,2022-02-15 21:32:19.089 +0100,PRIVATE,,,WATER_SUPPLY,BRICK,CERAMIC_TILE,MESH,,10,,true,,1701,51.27614266263242,15.680156193084711,1850000.0,PLN,240.88541666666666
Dom na sprzedaż,Choszczno,Choszczno,choszczeński,zachodniopomorskie,,,2022-02-17 11:16:17.377 +0100,REAL_ESTATE_AGENCY,,,,OTHER,,OTHER,,,,,,,,,1100000.0,PLN,6470.588235294118
"Człuchowski, Rzeczenica, Brzezie",Rzeczenica,Rzeczenica,człuchowski,pomorskie,,,2022-02-17 17:12:47.059 +0100,REAL_ESTATE_AGENCY,,,,BRICK,,,,6,3,true,,1937,53.81806,16.92924,2500000.0,PLN,8928.57142857143
"Człuchowski, Rzeczenica, Brzezie",Brzezie,Rzeczenica,człuchowski,pomorskie,,,2022-02-17 19:10:42.222 +0100,REAL_ESTATE_AGENCY,,BOILER_ROOM,,BRICK,,MIXED,,5,3,true,,1937,53.81806,16.92924,2500000.0,PLN,8928.57142857143
Dworek Bogdaniec,Bogdaniec,Bogdaniec,gorzowski,lubuskie,,,2022-02-14 20:22:29.831 +0100,REAL_ESTATE_AGENCY,,,WATER_SUPPLY,,,,,5,,true,,1934,52.6889085,15.0706674,849000.0,PLN,2122.5
"kłodzki, Lądek-Zdrój, TRZEBIESZOWICE",Lądek-Zdrój,Lądek-Zdrój,kłodzki,dolnośląskie,,,2022-02-13 06:02:24.257 +0100,,,,,,,,,12,,,,,50.3431,16.8795,230000.0,PLN,383.3333333333333
"kłodzki, Lądek-Zdrój, TRZEBIESZOWICE",Lądek-Zdrój,Lądek-Zdrój,kłodzki,dolnośląskie,,,2022-02-13 15:44:23.260 +0100,PRIVATE,,,,,,,,12,,,,,50.3431,16.8795,230000.0,PLN,766.6666666666666
"Dworek, ul. Zamkowa",Fałków,Fałków,konecki,świętokrzyskie,Zamkowa,,2022-02-15 06:24:54.434 +0100,REAL_ESTATE_AGENCY,,,WATER_SUPPLY,,,,,12,,,,1836,51.134198,20.109272,1750000.0,PLN,2717.391304347826
"legnicki, Chojnów, Budziwojów",Budziwojów,Chojnów,legnicki,dolnośląskie,,,2022-02-12 23:46:15.539 +0100,PRIVATE,,,,,,,,25,,,,,51.2335,15.9508,3500000.0,PLN,573.7704918032787
Dworek Dobra,Dobra,Dobra,łobeski,zachodniopomorskie,,,2022-02-16 06:55:02.066 +0100,REAL_ESTATE_AGENCY,,GAS_HEATING,,,,,,4,,,,2009,,,2490000.0,PLN,8586.206896551725
Dom na sprzedaż,Olszanka,Krzczonów,lubelski,lubelskie,,,2022-02-18 01:07:58.655 +0100,REAL_ESTATE_AGENCY,,,,OTHER,,NONE,,12,,,,1810,,,2100000.0,PLN,2100.0
"Dworek, Zalesie Dolne",Piaseczno,Piaseczno,piaseczyński,mazowieckie,,,2022-02-17 05:08:59.996 +0100,REAL_ESTATE_AGENCY,,,WATER_SUPPLY,,,,,,,,,1933,,,1600000.0,PLN,6666.666666666667
"proszowicki, Koszyce",Koszyce,Koszyce,proszowicki,małopolskie,,,2022-02-15 04:46:14.757 +0100,PRIVATE,,,WATER_SUPPLY,BRICK,,,,9,,true,true,1887,50.1703,20.5789,3100000.0,PLN,6739.130434782609
"Dom na sprzedaż: proszowicki, Koszyce",Koszyce,Koszyce,proszowicki,małopolskie,,,2022-02-15 06:06:25.365 +0100,PRIVATE,OTHER_HEATING,BOILER_ROOM,WATER_SUPPLY,BRICK,,MESH,,9,,true,true,1887,50.1703,20.5789,3100000.0,PLN,7948.717948717948
Dom na sprzedaż,Wąwolnica,Wąwolnica,puławski,lubelskie,Kębło,"11C",2022-02-14 21:13:05.383 +0100,PRIVATE,,,WATER_SUPPLY,WOOD,,MESH,,5,,,,2021,51.281476899999,22.12886,1685000.0,PLN,16359.223300970874
Dworek Niewieścin,Niewieścin,Pruszcz,świecki,kujawsko-pomorskie,,,2022-02-14 20:17:57.089 +0100,REAL_ESTATE_AGENCY,,,,,,,,8,,,,,53.2907107,18.2286946,5100000.0,PLN,12846.347607052896
Dom na sprzedaż,Osieki Lęborskie,Choczewo,wejherowski,pomorskie,,,2022-02-13 21:07:48.171 +0100,REAL_ESTATE_AGENCY,,,,OTHER,,OTHER,,,,,,1960,,,7900000.0,PLN,12.287228747760302
"Drawski, Drawsko Pomorskie",Drawsko Pomorskie,Drawsko Pomorskie,drawski,zachodniopomorskie,,,2022-02-22 01:50:54.810 +0100,,MUNICIPAL,GAS_HEATING,WATER_SUPPLY,BRICK,,MESH,,20,,true,,1860,53.52825,15.83425,1200000.0,PLN,1125.703564727955
Dworek Gilów,Gilów,Niemcza,dzierżoniowski,dolnośląskie,,,2022-02-21 04:43:52.595 +0100,REAL_ESTATE_AGENCY,,,WATER_SUPPLY,,,,,16,,true,true,1840,50.72194912,16.7833221,1900000.0,PLN,3095.2691255050177
Dworek Chynów,Chynów,Chynów,grójecki,mazowieckie,,,2022-02-19 17:19:23.962 +0100,REAL_ESTATE_AGENCY,,,,,,,,8,,,true,1999,51.904167,21.0819254,1900000.0,PLN,5000.0
Dworek Oblas,Oblas,Przytyk,radomski,mazowieckie,,,2022-02-25 17:57:34.435 +0100,REAL_ESTATE_AGENCY,,,WATER_SUPPLY,,,,,9,,true,true,1914,51.4477199,20.9253966,699000.0,PLN,1270.909090909091
Dworek Paprotnia,Paprotnia,Stężyca,rycki,lubelskie,,,2022-02-23 19:48:35.933 +0100,REAL_ESTATE_AGENCY,,,,,,,,7,,,,,51.6307718,21.6621891,990000.0,PLN,2119.914346895075
"Żarski (pow.), Żary, Domańskiego",Żary,Żary m,żarski,lubuskie,Domańskiego,,2022-02-23 03:37:25.519 +0100,REAL_ESTATE_AGENCY,MUNICIPAL,BOILER_ROOM,WATER_SUPPLY,BRICK,,METAL,,40,30,true,,1680,51.641,15.1481,500000.0,PLN,300.1200480192077
"gdański, Trąbki Wielkie, Mierzeszyn",Mierzeszyn,Trąbki Wielkie,gdański,pomorskie,,,2022-03-04 10:08:25.744 +0100,PRIVATE,,,,,,,,5,,,,,54.1938,18.4217,1200000.0,PLN,8571.42857142857
Dworek Grodzisk Mazowiecki,Grodzisk Mazowiecki,Grodzisk Mazowiecki,grodziski,mazowieckie,,,2022-03-04 17:20:42.310 +0100,REAL_ESTATE_AGENCY,,GAS_HEATING,WATER_SUPPLY,,,,,5,,true,,2006,52.1005063,20.6108968,1890000.0,PLN,9130.434782608696
"Lubański, Olszyna, 
Marii Skłodowskiej-Curie",Olszyna,Olszyna,lubański,dolnośląskie,,,2022-03-01 01:33:21.621 +0100,REAL_ESTATE_AGENCY,,,,BRICK,,,,9,3,true,true,1930,51.0719242,15.3837125,890000.0,PLN,1827.5154004106776
Dom na sprzedaż,Marysin,Jastków,lubelski,lubelskie,,,2022-03-01 09:20:27.166 +0100,REAL_ESTATE_AGENCY,,,,BRICK,,METAL,,9,,,,1900,,,1390000.0,PLN,4695.945945945946
Dom na sprzedaż,Olszyna,Herby,lubliniecki,śląskie,Marii Skłodowskiej-Curie,,2022-03-01 01:06:35.396 +0100,REAL_ESTATE_AGENCY,,,,BRICK,,MESH,,9,,,,1930,,,890000.0,PLN,1827.5154004106776
Dworek Złotowo,Złotowo,Stare Pole,malborski,pomorskie,,,2022-03-01 16:54:29.534 +0100,REAL_ESTATE_AGENCY,,,WATER_SUPPLY,,,,,5,,,,1910,54.02532,19.21955,225000.0,PLN,900.0
Dom na sprzedaż,Kołbaskowo,Kołbaskowo,policki,zachodniopomorskie,,,2022-03-03 17:13:12.904 +0100,REAL_ESTATE_AGENCY,,,,OTHER,,OTHER,,20,,,,1900,,,1990000.0,PLN,1340.9703504043127
Dworek Tczew,Tczew,Tczew m,tczewski,pomorskie,,,2022-03-04 17:20:54.066 +0100,REAL_ESTATE_AGENCY,,GAS_HEATING,WATER_SUPPLY,,,,,4,,,,2007,54.08799,18.79975,1290000.0,PLN,5817.3618940248025
"Warszawski Zachodni, Leszno",Leszno,Leszno,warszawski zachodni,mazowieckie,,,2022-03-02 14:04:13.448 +0100,,,OTHER_HEATING,,,,,,6,4,,,2010,52.2611632,20.5887288,3500000.0,PLN,12280.701754385966
Dom na sprzedaż,Chodecz,Chodecz,włocławski,kujawsko-pomorskie,,,2022-03-02 05:04:57.679 +0100,REAL_ESTATE_AGENCY,,,,BRICK,,OTHER,,4,,,,1900,,,1060000.0,PLN,2639.836628978433
"Wrocławski (pow.), Długołęka (gm.)",Długołęka,Długołęka,wrocławski,dolnośląskie,,,2022-03-04 14:40:00.943 +0100,REAL_ESTATE_AGENCY,,,,OTHER,,OTHER,,10,4,false,true,2008,51.1747,17.1953,9700000.0,PLN,13305.898491083677
Dom na sprzedaż,Stoszowice,Stoszowice,ząbkowicki,dolnośląskie,,,2022-03-04 08:05:02.850 +0100,REAL_ESTATE_AGENCY,,,,OTHER,,OTHER,,10,,,,,,,750000.0,PLN,117.1875
Dom na sprzedaż,Leśna,Lipowa,żywiecki,śląskie,Rokitki,,2022-03-04 15:16:59.004 +0100,REAL_ESTATE_AGENCY,,,,BLOCK,,OTHER,,4,,,,2007,,,1290000.0,PLN,5817.3618940248025
Dworek Międzyrzecze Górne,Międzyrzecze Górne,Jasienica,bielski,śląskie,,,2022-03-09 23:40:56.764 +0100,REAL_ESTATE_AGENCY,,,,,,,,1,,true,,1890,49.8289,18.9416,300000.0,PLN,1851.851851851852
Dworek Podkowa Leśna,Podkowa Leśna,Podkowa Leśna,grodziski,mazowieckie,,,2022-03-09 23:42:10.755 +0100,REAL_ESTATE_AGENCY,,GAS_HEATING,WATER_SUPPLY,,,,,7,,true,,1934,52.1185382,20.744891,3499000.0,PLN,11586.092715231787
Dom na sprzedaż,Strzepowo,Będzino,koszaliński,zachodniopomorskie,,,2022-03-11 02:54:50.011 +0100,REAL_ESTATE_AGENCY,,,,OTHER,,OTHER,,30,,,,,,,500000.0,PLN,166.66666666666666
Dom na sprzedaż,Żabia Wola,Głusk,lubelski,lubelskie,,,2022-03-07 23:44:21.719 +0100,REAL_ESTATE_AGENCY,,,,BRICK,,OTHER,,15,,,,1860,,,4700000.0,PLN,3916.6666666666665
"pomorskie, pucki, Kosakowo, Pogórze, Andaluzyjska",Pogórze,Kosakowo,pucki,pomorskie,Andaluzyjska,,2022-03-07 22:31:53.227 +0100,,,,,,,,,8,,,,,54.57170376,18.48123353,7500000.0,PLN,12417.218543046358
Dworek Sanok,Sanok,Sanok m,sanocki,podkarpackie,,,2022-03-09 23:45:23.346 +0100,REAL_ESTATE_AGENCY,,,,,,,,,,,,1920,49.55501870000001,22.2060658,990000.0,PLN,990.0
"Gdański, Kolbudy, Bielkowo, 
Szkolna",Kolbudy,Kolbudy,gdański,pomorskie,Szkolna,,2022-03-12 13:55:38.336 +0100,REAL_ESTATE_AGENCY,,,,,,,,15,4,true,true,,54.27026,18.49967,2320000.0,PLN,2360.122075279756
"Gdański, Kolbudy, Bielkowo, Szkolna",Bielkowo,Kolbudy,gdański,pomorskie,Gdański,,2022-03-12 14:22:10.722 +0100,,MUNICIPAL,,WATER_SUPPLY,,,NONE,,15,4,true,true,,54.27026,18.49967,2320000.0,PLN,3978.1885524194936
Dworek Płóczki Górne,Płóczki Górne,Lwówek Śląski,lwówecki,dolnośląskie,,,2022-03-13 14:12:10.337 +0100,REAL_ESTATE_AGENCY,,,,,,,,20,,,,1820,51.088695,15.5428202,750000.0,PLN,902.5270758122743
"Lwówecki, Lwówek Śląski, Płóczki Górne",Płóczki Górne,Lwówek Śląski,lwówecki,dolnośląskie,,,2022-03-13 12:16:26.185 +0100,REAL_ESTATE_AGENCY,,,,,,,,20,,,,1820,51.0887,15.5428,3702600.0,PLN,4455.595667870036
Dom na sprzedaż,Staroźreby,Staroźreby,płocki,mazowieckie,Płocka,,2022-03-18 15:07:27.865 +0100,REAL_ESTATE_AGENCY,,,,BRICK,,OTHER,,3,,,,1890,,,1290000.0,PLN,2480.769230769231
"Sochaczewski, Sochaczew, Chodaków, Hotelowa",Sochaczew,Sochaczew m,sochaczewski,mazowieckie,Hotelowa,,2022-03-16 20:29:19.672 +0100,REAL_ESTATE_AGENCY,,,,BRICK,,,,15,,,,1820,52.25388,20.28163,1250000.0,PLN,2097.3154362416108
"Dom na sprzedaż: Średzki, Malczyce, Wilczków",Wilczków,Malczyce,średzki,dolnośląskie,,,2022-03-18 08:02:08.538 +0100,REAL_ESTATE_AGENCY,,,,,,,,4,,,,1860,51.1888,16.4992,1675000.0,PLN,8292.079207920791
"Świebodziński, Świebodzin, Lubinicko",Lubinicko,Świebodzin,świebodziński,lubuskie,,,2022-03-18 14:16:21.371 +0100,REAL_ESTATE_AGENCY,,,,,,,,,,,,1800,52.23432,15.56731,1990000.0,PLN,710.7142857142857
"Trzebnicki, Oborniki Śląskie, Wielka Lipa",Wielka Lipa,Oborniki Śląskie,trzebnicki,dolnośląskie,,,2022-03-16 01:31:53.325 +0100,,,,,,,,,33,10,,true,1899,51.32184,16.8564,5500000.0,PLN,5589.430894308943
Dom na sprzedaż,Popowo Kościelne,Somianka,wyszkowski,mazowieckie,"38",,2022-03-16 03:51:26.259 +0100,REAL_ESTATE_AGENCY,,,,BRICK,,MESH,,10,,,,1880,,,2100000.0,PLN,3230.769230769231
Bydgoszcz,Bydgoszcz,Bydgoszcz,Bydgoszcz,kujawsko-pomorskie,,,2022-03-24 12:50:20.869 +0100,,,,,,,,,10,,,,,53.1235,18.0084,3073600.0,PLN,3327.0190402996222
Dom na sprzedaż,Kłomnice,Kłomnice,częstochowski,śląskie,,,2022-03-24 15:08:59.915 +0100,REAL_ESTATE_AGENCY,,,,BRICK,,OTHER,,5,,,,1960,,,250000.0,PLN,1250.0
"dolnośląskie, jeleniogórski, Jeżów Sudecki, Dziwiszów",Dziwiszów,Jeżów Sudecki,jeleniogórski,dolnośląskie,,,2022-03-20 12:25:14.768 +0100,,,,,,,,,,,,,,50.940946,15.79688,5960000.0,PLN,
Dworek Chmieleń,Chmieleń,Lubomierz,lwówecki,dolnośląskie,,,2022-03-25 04:56:53.551 +0100,REAL_ESTATE_AGENCY,,,WELL,,,,,22,,true,,1940,50.978565,15.49214,1500000.0,PLN,949.367088607595
Dworek Kluki,Kluki,Przelewice,pyrzycki,zachodniopomorskie,,,2022-03-24 15:52:32.078 +0100,REAL_ESTATE_AGENCY,,,,,,,,,,true,true,1848,53.1378193,15.0693431,990000.0,PLN,1796.7332123411977
Dworek Piaseczno,Piaseczno,Jedlińsk,radomski,mazowieckie,,,2022-03-23 15:22:02.179 +0100,REAL_ESTATE_AGENCY,,,,,,,,10,,true,,2013,,,1980000.0,PLN,3882.3529411764707
"Siemiatycki, Mielnik",Mielnik,Mielnik,siemiatycki,podlaskie,,,2022-03-24 10:25:13.376 +0100,,ELECTRIC_HEATING,,,BRICK,,MIXED,,6,4,,,2006,52.32932,23.0473,1200000.0,PLN,2000.0
Dom na sprzedaż,Warszawa,Warszawa,Warszawa,mazowieckie,,,2022-03-24 21:04:42.435 +0100,REAL_ESTATE_AGENCY,,,,BRICK,,OTHER,,3,,,,1920,52.17863615,21.192793803037,1600000.0,PLN,21621.62162162162
"Grodziski, Podkowa Leśna, Żółwin",Podkowa Leśna,Podkowa Leśna,grodziski,mazowieckie,,,2022-03-30 14:42:21.039 +0200,,MUNICIPAL,GAS_HEATING,WATER_SUPPLY,BRICK,CERAMIC_TILE,,,7,,true,,1934,52.1185382,20.744891,3499000.0,PLN,11586.092715231787
Unikalny dworek w otulinie lasów Jury/ Żarki,Katowice,Katowice,Katowice,śląskie,,,2022-03-30 12:31:30.341 +0200,REAL_ESTATE_AGENCY,,,,,,,,7,,,,1935,50.26288,19.02276,390000.0,PLN,1733.3333333333333
"Kołobrzeski, Dygowo, Jazy",Jazy,Dygowo,kołobrzeski,zachodniopomorskie,,,2022-03-28 13:51:41.148 +0200,,,,,BLOCK,,NONE,,5,2,,true,2020,54.13186889,15.72212219,450000.0,PLN,3688.5245901639346
"Kołobrzeski, Dygowo",Dygowo,Dygowo,kołobrzeski,zachodniopomorskie,,,2022-03-28 13:31:25.668 +0200,REAL_ESTATE_AGENCY,,,,BLOCK,,NONE,,5,2,,true,2020,54.131841,15.7207855,450000.0,PLN,1666.6666666666667
Dom na sprzedaż,Polanów,Polanów,koszaliński,zachodniopomorskie,,,2022-03-30 16:12:22.968 +0200,REAL_ESTATE_AGENCY,,,WATER_SUPPLY,OTHER,,,,50,,,,1920,54.11921,16.68725,2990000.0,PLN,588.0039331366766
"Kutnowski (Pow.), Kutno (Gm.), Malina",Malina,Kutno,kutnowski,łódzkie,,,2022-03-29 07:49:56.972 +0200,REAL_ESTATE_AGENCY,,BOILER_ROOM,,BRICK,,OTHER,,20,20,true,true,,52.2477,19.4181,3200000.0,PLN,1545.8937198067633
Sprzedam Dom Weselny,Kaniczki,Sadlinki,kwidzyński,pomorskie,Kaniczki,"33",2022-03-30 16:10:12.226 +0200,PRIVATE,,BOILER_ROOM,WATER_SUPPLY,,,MESH,,6,,,,,53.67945,18.79171,1250000.0,PLN,2510.0401606425703
"Lipnowski, Kikół",Kikół,Kikół,lipnowski,kujawsko-pomorskie,,,2022-03-28 10:56:54.506 +0200,REAL_ESTATE_AGENCY,,,,,,,,4,,,,,52.9092,19.1198,479000.0,PLN,2082.608695652174
"Lipnowski, Kikół",Kikół,Kikół,lipnowski,kujawsko-pomorskie,,,2022-03-28 11:12:36.662 +0200,,,,,,,,,4,,,,,52.9092,19.1198,479000.0,PLN,2661.1111111111113
Dom na sprzedaż,Byszewy,Nowosolna,łódzki wschodni,łódzkie,,,2022-03-28 22:10:50.670 +0200,REAL_ESTATE_AGENCY,,,WATER_SUPPLY,BRICK,,,,7,,,,,51.8234056,19.6279358,4100000.0,PLN,6156.156156156156
"Dom, 353 m2, Sobiekursk",Sobiekursk,Karczew,otwocki,mazowieckie,,,2022-03-31 22:02:21.418 +0200,REAL_ESTATE_AGENCY,,GAS_HEATING,,BRICK,CERAMIC_TILE,,,8,,,,1990,52.02411,21.2884,3800000.0,PLN,10764.87252124646
Unikatowa rezydencja w Magdalence,Magdalenka,Lesznowola,piaseczyński,mazowieckie,,,2022-03-29 11:08:47.817 +0200,REAL_ESTATE_AGENCY,,GAS_HEATING,WATER_SUPPLY,,,,,7,,true,,2010,52.09449,20.90638,9800000.0,PLN,13162.666380132434
Piękny dom tuż obok lasu!,Rudy,Kuźnia Raciborska,raciborski,śląskie,,,2022-03-30 03:31:43.035 +0200,REAL_ESTATE_AGENCY,,,WATER_SUPPLY,BRICK,,,,6,,,,2010,50.19054,18.45077,1040000.0,PLN,3714.285714285714
Dom na sprzedaż,Warszawa,Warszawa,Warszawa,mazowieckie,Zawady,,2022-03-31 06:07:17.518 +0200,REAL_ESTATE_AGENCY,,,,BRICK,,OTHER,,6,,,,2011,,,2999000.0,PLN,11316.981132075472
Nieruchomość dla inwestora - Pałacyk obok Zamościa,Wólka Panieńska,Zamość,zamojski,lubelskie,,,2022-03-31 15:08:59.170 +0200,REAL_ESTATE_AGENCY,,BOILER_ROOM,WATER_SUPPLY,BLOCK,METAL_SHEET,,,9,,true,,,50.69811,23.30314,610000.0,PLN,1525.0
"Bocheński, Łapanów, Zbydniów",Zbydniów,Łapanów,bocheński,małopolskie,,,2022-04-05 14:48:09.637 +0200,REAL_ESTATE_AGENCY,,GAS_HEATING,,WOOD,,MESH,,8,2,true,,1846,49.83648,20.33255,2600000.0,PLN,4333.333333333333
Dom na sprzedaż,Drawsko Pomorskie,Drawsko Pomorskie,drawski,zachodniopomorskie,,,2022-04-06 02:11:35.020 +0200,REAL_ESTATE_AGENCY,,,WATER_SUPPLY,BRICK,,,,20,,,,1860,53.5310786,15.8134179,1200000.0,PLN,1062.887511071745
"gdański, Trąbki Wielkie, Mierzeszyn",Mierzeszyn,Trąbki Wielkie,gdański,pomorskie,,,2022-04-05 13:37:36.890 +0200,PRIVATE,,,,,,,,5,,,,,54.1938,18.4217,1200000.0,PLN,9836.065573770491
Zespół parkowo-pałacowy w gminie Gniezno,Gniezno,Gniezno m,gnieźnieński,wielkopolskie,,,2022-04-02 01:03:09.494 +0200,REAL_ESTATE_AGENCY,,,,,,,,10,,true,,1882,52.59004839,17.65571594,3900000.0,PLN,3085.4430379746836
***Dworek na Mazurach***,Widgiry,Banie Mazurskie,gołdapski,warmińsko-mazurskie,,,2022-04-04 18:14:50.237 +0200,REAL_ESTATE_AGENCY,,,WATER_SUPPLY,,,OTHER,,5,,,,2010,54.30921,22.0901,1200000.0,PLN,4958.677685950413
Dworek Jawor,Jawor,Jawor,jaworski,dolnośląskie,,,2022-04-04 20:48:06.328 +0200,REAL_ESTATE_AGENCY,,,,,,,,6,,,,1736,51.0545282,16.1863231,3990000.0,PLN,11400.0
"kamieński, Kamień Pomorski, Miłachowo",Miłachowo,Kamień Pomorski,kamieński,zachodniopomorskie,,,2022-04-02 12:33:50.994 +0200,PRIVATE,OTHER_HEATING,,WATER_SUPPLY,,,NONE,,8,,,,,53.9673,14.7714,999000.0,PLN,1921.1538461538462
"Kazimierski, Kazimierza Wielka, Cudzynowice",Cudzynowice,Kazimierza Wielka,kazimierski,świętokrzyskie,,,2022-04-05 15:46:25.579 +0200,REAL_ESTATE_AGENCY,,,,,,,,,,,,,,,1291482.0,PLN,3047.3855592260497
Dworek Kazimierza Wielka,Kazimierza Wielka,Kazimierza Wielka,kazimierski,świętokrzyskie,,,2022-04-05 17:55:07.972 +0200,REAL_ESTATE_AGENCY,,,,,,,,,,,,,,,1291482.0,PLN,3047.3855592260497
"Dworek, pow. 577 m, Bilcza, gm. Morawica",Bilcza,Morawica,kielecki,świętokrzyskie,,,2022-04-08 22:07:40.586 +0200,REAL_ESTATE_AGENCY,,,,BRICK,,,,8,,,,1998,50.786,20.61652,9500000.0,PLN,19000.0
"Legionowski, Serock, Jadwisin, Akacjowa",Jadwisin,Serock,legionowski,mazowieckie,Akacjowa,,2022-04-04 18:36:20.672 +0200,REAL_ESTATE_AGENCY,MUNICIPAL,NONE,WATER_SUPPLY,BRICK,,MESH,,2,1,true,,1939,52.47612,21.03641,950000.0,PLN,3800.0
Historyczna Willa w Otulinie Parku Krajobrazowego,Łódź,Łódź,Łódź,łódzkie,,,2022-04-06 21:33:25.636 +0200,PRIVATE,,,WATER_SUPPLY,BRICK,CERAMIC_TILE,,,6,,true,,1926,51.85732177011478,19.491860024261477,6900000.0,PLN,9857.142857142857
Rezydencja - Czechów - okolice ul. Zelwerowicza,Lublin,Lublin,Lublin,lubelskie,Konrada Staczyńskiego,,2022-04-02 10:07:04.742 +0200,REAL_ESTATE_AGENCY,,,,BRICK,,,,7,,true,,2009,51.27707,22.53969,1690000.0,PLN,2414.285714285714
"Olecki, Świętajno",Świętajno,Świętajno,olecki,warmińsko-mazurskie,,,2022-04-08 12:50:59.174 +0200,,OTHER_HEATING,,WELL,BRICK,,WOODEN,,12,5,,,2010,54.00455,22.31766,2585000.0,PLN,2637.7551020408164
"Dom, 1 800 m2, Stradomia Wierzchnia",Stradomia Wierzchnia,Syców,oleśnicki,dolnośląskie,,,2022-04-05 08:06:20.365 +0200,REAL_ESTATE_AGENCY,,,,,,,,10,,,,,51.26764,17.64152,500000.0,PLN,277.77777777777777
Dom na sprzedaż,Brześnica,Dolsk,śremski,wielkopolskie,,,2022-04-06 10:09:21.057 +0200,REAL_ESTATE_AGENCY,,,,BRICK,,OTHER,,19,,,,1865,51.95736,17.13958,1600000.0,PLN,1777.7777777777778
"Poznański, Mosina",Mosina,Dobrzany,stargardzki,zachodniopomorskie,,,2022-04-03 23:58:58.479 +0200,REAL_ESTATE_AGENCY,,,,BRICK,,OTHER,,6,4,,,1830,52.15811884,16.86695337,3990000.0,PLN,9925.373134328358
"Tarnowski, Tuchów, Karwodrza",Karwodrza,Tuchów,tarnowski,małopolskie,,,2022-04-05 12:25:21.741 +0200,,MUNICIPAL,OTHER_HEATING,WATER_SUPPLY,,CERAMIC_TILE,,,6,,,true,2021,49.9251,21.0715,419000.0,PLN,2182.2916666666665
"Dom, 192 m2, Tuchów",Tuchów,Tuchów,tarnowski,małopolskie,,,2022-04-05 14:16:49.616 +0200,REAL_ESTATE_AGENCY,,,WATER_SUPPLY,,,,,6,,,,2021,49.89061,21.05565,419000.0,PLN,2182.2916666666665
Dom na sprzedaż,Pelplin,Pelplin,tczewski,pomorskie,,,2022-04-08 02:17:51.549 +0200,REAL_ESTATE_AGENCY,,,WATER_SUPPLY,BRICK,,,,12,,,,1890,53.9278352,18.6985388,1000000.0,PLN,1256.992018100685
Dworek Żary,Żary,Żary m,żarski,lubuskie,,,2022-04-06 08:24:38.069 +0200,REAL_ESTATE_AGENCY,,,,,,,,6,,true,,,,,1500000.0,PLN,3125.0
"Dworek, Kunice",Żary,Żary m,żarski,lubuskie,,,2022-04-06 08:24:31.795 +0200,REAL_ESTATE_AGENCY,,,WATER_SUPPLY,,,,,8,,true,,1871,,,800000.0,PLN,1777.7777777777778
Dworek Kalsk,Kalsk,Sulechów,zielonogórski,lubuskie,,,2022-04-06 08:24:42.517 +0200,REAL_ESTATE_AGENCY,,,,,,,,12,,,,,52.1248954,15.5905706,495000.0,PLN,1031.25
"Żyrardowski, Wiskitki, Hipolitów",Hipolitów,Wiskitki,żyrardowski,mazowieckie,,,2022-04-08 13:50:34.379 +0200,,,OTHER_HEATING,,OTHER,,,,12,11,,,2008,52.07207,20.32543,6200000.0,PLN,14761.904761904761
"Dwór pod Warszawą I 4,5 ha działka",Hipolitów,Wiskitki,żyrardowski,mazowieckie,,,2022-04-08 14:13:37.828 +0200,REAL_ESTATE_AGENCY,,,WATER_SUPPLY,,,,,10,,,,2008,52.07207,20.32543,6200000.0,PLN,11923.076923076924
Dom w Stylu Dworkowym/ Białobrzegi,Białobrzegi,Białobrzegi,białobrzeski,mazowieckie,,,2022-04-14 17:11:00.405 +0200,REAL_ESTATE_AGENCY,,GAS_HEATING,,BRICK,,,,4,,,,2011,51.6426765,20.9541789,1500000.0,PLN,5208.333333333333
Rezydencja na obrzeżach Białegostoku do wykończeni,Białystok,Białystok,Białystok,podlaskie,Jaroszówka,,2022-04-11 17:02:08.354 +0200,REAL_ESTATE_AGENCY,,GAS_HEATING,WATER_SUPPLY,BRICK,CERAMIC_TILE,OTHER,,7,,,,2011,53.16493,23.19522,2950000.0,PLN,3010.204081632653
Dom na sprzedaż,Milanówek,Milanówek,grodziski,mazowieckie,Piłsudskiego,,2022-04-14 14:09:44.744 +0200,REAL_ESTATE_AGENCY,,,WATER_SUPPLY,BRICK,,OTHER,,6,,,,,52.1191934,20.6708375,3015000.0,PLN,14852.216748768473
"Dom, Plebania w niezwykłym miejscu, Sudety",Kochanów,Kamienna Góra,kamiennogórski,dolnośląskie,,,2022-04-15 09:07:17.932 +0200,PRIVATE,,,WATER_SUPPLY,BRICK,CERAMIC_TILE,,,10,,true,,1760,50.68701,16.1535,629000.0,PLN,1397.7777777777778
Najpiękniejsza posiadłość w Polsce !!!,Bilcza,Morawica,kielecki,świętokrzyskie,,,2022-04-15 12:04:34.544 +0200,PRIVATE,,BOILER_ROOM,WATER_SUPPLY,,WOOD,MESH,,8,,true,,1997,50.786,20.61652,9500000.0,PLN,16464.471403812826
"Kielecki, Morawica, Bilcza",Bilcza,Morawica,kielecki,świętokrzyskie,Kielecki,,2022-04-10 14:39:42.019 +0200,,OTHER_HEATING,TILED_STOVE,WATER_SUPPLY,BRICK,WOOD,,,8,2,true,true,1998,50.7872033,20.6200189,9500000.0,PLN,27142.85714285714
Dworek Milicz,Milicz,Milicz,milicki,dolnośląskie,,,2022-04-11 17:20:37.827 +0200,REAL_ESTATE_AGENCY,,,,,,,,13,,true,,1910,51.541736,17.332622,2900000.0,PLN,6041.666666666667
Zabytkowa posiadłość na sprzedaż,Karczemka,Małdyty,ostródzki,warmińsko-mazurskie,,,2022-04-11 17:31:49.440 +0200,REAL_ESTATE_AGENCY,,,,,,,,10,,,,1837,53.94286,19.69574,6000000.0,PLN,3000.0
"Warszawa, Okólnik",Warszawa,Warszawa,Warszawa,mazowieckie,Okólnik,,2022-04-15 10:45:52.896 +0200,REAL_ESTATE_AGENCY,,,,BRICK,,,,15,,,,1820,52.2360167,21.0215743,1350000.0,PLN,2265.1006711409395
"Dworek Wola, ul. Okólnik",Warszawa,Warszawa,Warszawa,mazowieckie,Okólnik,,2022-04-15 16:23:40.398 +0200,REAL_ESTATE_AGENCY,,,,,,,,15,,,,1820,52.2360167,21.0215743,1250000.0,PLN,2097.3154362416108
"Wejherowski, Szemud, Kielno, Oliwska",Szemud,Szemud,wejherowski,pomorskie,Oliwska,,2022-04-12 15:16:57.704 +0200,REAL_ESTATE_AGENCY,,OTHER_HEATING,,BLOCK,,,,35,30,,true,2021,54.46915,18.29921,8200000.0,PLN,4778.554778554779
Marszowice rezydencja z podgrzewanym podjazdem,Wrocław,Wrocław,Wrocław,dolnośląskie,Fabryczna,,2022-04-13 13:02:20.630 +0200,REAL_ESTATE_AGENCY,,GAS_HEATING,WATER_SUPPLY,,,,,4,,,,2023,51.16558,16.87546,1680000.0,PLN,10690.423162583518
"Wschowski, Szlichtyngowa, Jędrzychowice",Jędrzychowice,Szlichtyngowa,wschowski,lubuskie,,,2022-04-15 19:34:19.883 +0200,REAL_ESTATE_AGENCY,OTHER_HEATING,OTHER_HEATING,WELL,,,OTHER,,30,4,true,true,1920,51.73756,16.29394,690000.0,PLN,492.85714285714283
Pałac Dworek Rezydencja woj Dolnośląskie Kostrzyn,Kostrzyna,Zgorzelec,zgorzelecki,dolnośląskie,,,2022-04-15 20:10:29.262 +0200,PRIVATE,,,,,,,,10,,,,1757,51.01866,14.99934,1500000.0,PLN,1250.0
Dom na sprzedaż,Chełm,Chełm m,Chełm,lubelskie,ks. Zygfryda Berezeckiego,,2022-04-20 02:10:43.906 +0200,REAL_ESTATE_AGENCY,,,,OTHER,,,,6,,,,1999,51.1339221,23.4711548,930000.0,PLN,2197.5425330812855
Pałac z parkiem i gruntem,Przybysław,Krzęcin,choszczeński,zachodniopomorskie,,,2022-04-22 12:07:37.369 +0200,REAL_ESTATE_AGENCY,,,WATER_SUPPLY,BRICK,,,,10,,,,1850,53.03292,15.45495,4500000.0,PLN,7500.0
Dom na sprzedaż,Kłomnice,Kłomnice,częstochowski,śląskie,,,2022-04-20 14:22:08.318 +0200,REAL_ESTATE_AGENCY,,,WATER_SUPPLY,BRICK,,OTHER,,5,,,,1960,50.916459,19.3457,250000.0,PLN,1250.0
Piękna rezydencja w Milanówku,Milanówek,Milanówek,grodziski,mazowieckie,,,2022-04-22 11:05:01.969 +0200,REAL_ESTATE_AGENCY,,,,,,,,10,,,,,52.13468,20.6471,5500000.0,PLN,12222.222222222223
Dom na sprzedaż,Milanówek,Milanówek,grodziski,mazowieckie,Łąkowa,,2022-04-22 12:12:05.007 +0200,REAL_ESTATE_AGENCY,,,,BRICK,,OTHER,,7,,,,2005,52.1077109,20.6786913,2200000.0,PLN,6094.182825484764
"Kętrzyński (pow.), Kętrzyn",Kętrzyn,Kętrzyn m,kętrzyński,warmińsko-mazurskie,,,2022-04-17 09:50:38.100 +0200,,,,,,,,,14,,,,,54.0766,21.375,1990000.0,PLN,1421.4285714285713
Dworek Karszew,Karszew,Dąbie,kolski,wielkopolskie,,,2022-04-18 05:10:18.472 +0200,REAL_ESTATE_AGENCY,,,WATER_SUPPLY,,,,,25,,true,,1876,52.1084483,18.8901251,4980000.0,PLN,2647.5279106858056
Dom na sprzedaż,Oskowo,Cewice,lęborski,pomorskie,,,2022-04-22 14:08:59.148 +0200,REAL_ESTATE_AGENCY,,,,OTHER,,,,12,,,,1860,54.3954587,17.6965674,1300000.0,PLN,2691.5113871635613
"Legionowski, Serock, Jadwisin, Akacjowa",Serock,Serock,legionowski,mazowieckie,Akacjowa,,2022-04-20 10:32:05.229 +0200,REAL_ESTATE_AGENCY,MUNICIPAL,NONE,WATER_SUPPLY,BRICK,,MESH,,6,2,true,,1927,52.47612,21.03641,950000.0,PLN,3800.0
Doskonała inwestycja- SIEDLISKO pod samym lasem.,Nawojów Łużycki,Lubań,lubański,dolnośląskie,,,2022-04-21 12:33:54.098 +0200,REAL_ESTATE_AGENCY,,BOILER_ROOM,WATER_SUPPLY,BRICK,CERAMIC_TILE,,,10,,true,,,51.1738,15.3417,1100000.0,PLN,535.279805352798
"Dworek, zabytkowy budynek 550m2 na działce 3,1ha",Oblas,Przytyk,radomski,mazowieckie,,,2022-04-20 10:33:20.233 +0200,REAL_ESTATE_AGENCY,,,,BRICK,,,,3,,,,1915,51.44118,20.91533,699000.0,PLN,1270.909090909091
Dom na sprzedaż,Warszawa,Warszawa,Warszawa,mazowieckie,Zawady,,2022-04-20 02:10:45.794 +0200,REAL_ESTATE_AGENCY,,,WATER_SUPPLY,BRICK,,OTHER,,6,,,,2008,52.146852,21.13365,2999000.0,PLN,11534.615384615385
"Węgrowski, Łochów, Zambrzyniec",Zambrzyniec,Łochów,węgrowski,mazowieckie,,,2022-04-19 12:45:55.384 +0200,REAL_ESTATE_AGENCY,OTHER_HEATING,OTHER_HEATING,WELL,,,OTHER,,13,,,,,52.5304959,21.69178614,3970000.0,PLN,6947.847392369618
Sprzedam Dom Bliźniak 102m2 w Złotoryi Ogród 4 ary,Złotoryja,Złotoryja m,złotoryjski,dolnośląskie,Władysława Broniewskiego,,2022-04-20 22:06:34.413 +0200,PRIVATE,,,WATER_SUPPLY,BLOCK,ROOFING_FELT,,,3,,true,,1980,51.1311944,15.9414135,455000.0,PLN,4460.78431372549
"Grodziski, Podkowa Leśna",Podkowa Leśna,Podkowa Leśna,grodziski,mazowieckie,,,2022-04-25 12:31:46.768 +0200,REAL_ESTATE_AGENCY,MUNICIPAL,GAS_HEATING,WATER_SUPPLY,OTHER,ROOFING_FELT,,,6,,true,true,1943,52.1199928,20.7265083,1450000.0,PLN,10000.0
Dom na sprzedaż,Grodzisk Mazowiecki,Grodzisk Mazowiecki,grodziski,mazowieckie,,,2022-04-27 16:12:39.434 +0200,REAL_ESTATE_AGENCY,,,WATER_SUPPLY,BLOCK,,OTHER,,5,,,,2006,52.1005063,20.6108968,1950000.0,PLN,9420.289855072464
Dom na sprzedaż,Marianów,Chynów,grójecki,mazowieckie,,,2022-04-28 08:06:48.153 +0200,REAL_ESTATE_AGENCY,,,WATER_SUPPLY,BLOCK,,OTHER,,9,,,,1999,51.922732,21.00727,2300000.0,PLN,6571.428571428572
Dom na sprzedaż,Gryfice,Gryfice,gryficki,zachodniopomorskie,,,2022-04-28 08:07:09.052 +0200,REAL_ESTATE_AGENCY,,,WATER_SUPPLY,BRICK,,OTHER,,3,,,,1910,53.90971075,15.19681495,800000.0,PLN,2352.9411764705883
Nietuzinkowa willa dla wymagających!,Jelenia Góra,Jelenia Góra,Jelenia Góra,dolnośląskie,Borówkowa,,2022-04-27 23:32:27.156 +0200,REAL_ESTATE_AGENCY,,GAS_HEATING,,OTHER,,,,8,,,,2020,50.87564,15.75939,2050000.0,PLN,10512.820512820514
Ślesin,Ślesin,Ślesin,koniński,wielkopolskie,,,2022-04-25 21:35:12.266 +0200,REAL_ESTATE_AGENCY,,BOILER_ROOM,,BRICK,,OTHER,,23,,true,,,53.1648,18.4834,1300000.0,PLN,855.2631578947369
Dom na sprzedaż,Strzepowo,Będzino,koszaliński,zachodniopomorskie,,,2022-04-28 20:04:09.327 +0200,REAL_ESTATE_AGENCY,,,,OTHER,,OTHER,,30,,,,,54.1747938,15.8837795,500000.0,PLN,166.66666666666666
Wyjątkowy zespół pałacowo - parkowy w Słomowie,Słomowo,Rogoźno,obornicki,wielkopolskie,,,2022-04-29 08:08:11.003 +0200,REAL_ESTATE_AGENCY,,,WATER_SUPPLY,BRICK,ROOFING_FELT,,,10,,true,,1906,52.68577,16.9556,1180000.0,PLN,1735.2941176470588
Zabytkowy DWÓR w Gałązkach Małych / park / staw,Gałązki Małe,Nowe Skalmierzyce,ostrowski,wielkopolskie,,,2022-04-27 23:05:00.511 +0200,PRIVATE,,,WATER_SUPPLY,BRICK,CERAMIC_TILE,METAL,,10,,true,,1903,51.75592,17.90565,1590000.0,PLN,1673.6842105263158
Dom na sprzedaż,Konstancin-Jeziorna,Konstancin-Jeziorna,piaseczyński,mazowieckie,,,2022-04-27 02:12:23.202 +0200,REAL_ESTATE_AGENCY,,,,BRICK,,OTHER,,9,,,,2000,52.0834787,21.1208073,4999000.0,PLN,6943.055555555556
"Płocki, Staroźreby",Staroźreby,Staroźreby,płocki,mazowieckie,,,2022-04-29 19:07:50.585 +0200,REAL_ESTATE_AGENCY,,,,,,,,10,,,,,52.6321,19.9868,1750000.0,PLN,1666.6666666666667
"Dom na sprzedaż: Przemyski, Krasiczyn, Dybawka",Dybawka,Krasiczyn,przemyski,podkarpackie,,,2022-04-29 01:06:38.514 +0200,REAL_ESTATE_AGENCY,MUNICIPAL,GAS_HEATING,WATER_SUPPLY,BLOCK,METAL_TILE,,,3,,,true,2006,49.7691539,22.68507941,990000.0,PLN,4024.390243902439
Dworek Przemyśl,Przemyśl,Przemyśl m,Przemyśl,podkarpackie,,,2022-04-28 05:14:20.816 +0200,REAL_ESTATE_AGENCY,,GAS_HEATING,WATER_SUPPLY,,,,,5,,,true,2006,,,990000.0,PLN,5103.092783505154
Przepiękna rezydencja nad morzem,Karwieńskie Błoto Drugie,Krokowa,pucki,pomorskie,Wczasowa,,2022-04-27 20:35:08.793 +0200,REAL_ESTATE_AGENCY,,GAS_HEATING,WATER_SUPPLY,BRICK,,WOODEN,,5,,,,2005,54.82233,18.15926,3200000.0,PLN,26666.666666666668
Rezydencja na sprzedaż k/Stalowej Woli,Rzeszów,Rzeszów ,Rzeszów,podkarpackie,,,2022-04-26 17:07:16.345 +0200,REAL_ESTATE_AGENCY,,GAS_HEATING,,,,OTHER,,8,,,,2009,50.54303,22.12821,6600000.0,PLN,10927.152317880795
"Dom, Gościniec, Pensjonat - Teresin",Teresin,Teresin,sochaczewski,mazowieckie,,,2022-04-24 04:32:15.845 +0200,PRIVATE,,,WATER_SUPPLY,CONCRETE,METAL_SHEET,MESH,,10,,,,2014,52.19938,20.41891,3900000.0,PLN,2805.755395683453
Unikalny dworek w otulinie lasów Jury/ Żarki,Sosnowiec,Sosnowiec,Sosnowiec,śląskie,,,2022-04-25 17:34:21.783 +0200,REAL_ESTATE_AGENCY,,,,,,,,7,,,,1935,50.28158,19.11219,390000.0,PLN,1733.3333333333333
dwór w Smaszewie koło Konina-INWESTYCJA,Smaszew,Tuliszków,turecki,wielkopolskie,,,2022-04-24 07:04:04.684 +0200,REAL_ESTATE_AGENCY,,,,BRICK,,MESH,,10,,,,,52.01302,18.27344,800000.0,PLN,1454.5454545454545
Komfortowa rezydencja w otoczeniu zieleni!,Gościcino,Wejherowo,wejherowski,pomorskie,Szlachecka,,2022-04-28 21:34:17.726 +0200,REAL_ESTATE_AGENCY,,,,,,,,9,,true,,2003,54.58782,18.16555,2599000.0,PLN,4346.153846153846
"Zduńskowolski, Zapolice, Kalinowa",Kalinowa,Zapolice,zduńskowolski,łódzkie,,,2022-04-27 22:09:35.688 +0200,REAL_ESTATE_AGENCY,OTHER_HEATING,OTHER_HEATING,WELL,BRICK,,MESH,,15,,,,1820,51.49078,18.92228,930000.0,PLN,2325.0
"Zduńskowolski, Zapolice, Kalinowa",Kalinowa,Zapolice,zduńskowolski,łódzkie,,,2022-04-27 22:06:26.379 +0200,REAL_ESTATE_AGENCY,OTHER_HEATING,OTHER_HEATING,WELL,BRICK,,MESH,,15,,,,1820,51.49078,18.92228,930000.0,PLN,1860.0
Dom na sprzedaż,Wasilków,Wasilków,białostocki,podlaskie,,,2022-05-06 09:37:10.837 +0200,REAL_ESTATE_AGENCY,,,,WOOD,,OTHER,,6,,,,1940,53.19826934,23.19375229,1150000.0,PLN,3833.3333333333335
"Rezydencja nad jeziorem 4,8 ha 400m linii brzegowe",Żywki,Kruklanki,giżycki,warmińsko-mazurskie,,,2022-05-04 05:32:23.785 +0200,PRIVATE,,,WATER_SUPPLY,BRICK,CERAMIC_TILE,,,10,,true,,,54.07349064180019,21.95357188354493,2200000.0,PLN,4400.0
Dom na sprzedaż,Widgiry,Banie Mazurskie,gołdapski,warmińsko-mazurskie,,,2022-05-06 09:29:34.046 +0200,REAL_ESTATE_AGENCY,,,WATER_SUPPLY,CONCRETE,,OTHER,,5,,,,2010,54.30921,22.0901,1200000.0,PLN,4958.677685950413
"Grodziski, Grodzisk Mazowiecki, Wężyk",Wężyk,Grodzisk Mazowiecki,grodziski,mazowieckie,,,2022-04-30 21:16:04.008 +0200,REAL_ESTATE_AGENCY,NONE,NONE,NONE,WOOD,ROOFING_FELT,,,2,,,,1990,52.0333838,20.6225435,215000.0,PLN,2756.4102564102564
Dwór w Zborowie bezpośrednio!,Zborów,Żelazków,kaliski,wielkopolskie,,,2022-05-05 17:09:58.452 +0200,PRIVATE,,OTHER_HEATING,WATER_SUPPLY,BRICK,CERAMIC_TILE,OTHER,,10,,,,1850,51.84523,18.19947,9500000.0,PLN,4871.794871794872
Dwór z Parkiem - piękna okolica lasów i jezior,Bobolice,Bobolice,koszaliński,zachodniopomorskie,,,2022-05-03 09:35:48.892 +0200,REAL_ESTATE_AGENCY,,BOILER_ROOM,WATER_SUPPLY,OTHER,METAL_SHEET,,,10,,true,,1907,54.001311864648,16.116943359375,1600000.0,PLN,2388.0597014925374
"Koszaliński, Polanów",Polanów,Polanów,koszaliński,zachodniopomorskie,,,2022-05-03 14:46:15.262 +0200,REAL_ESTATE_AGENCY,MUNICIPAL,BOILER_ROOM,WATER_SUPPLY,,,,,50,15,true,true,1920,54.11821,16.68129,2990000.0,PLN,588.0039331366766
Dworek Czeczotki,Czeczotki,Czosnów,nowodworski,mazowieckie,,,2022-05-02 04:19:03.492 +0200,REAL_ESTATE_AGENCY,,GAS_HEATING,,,,,,3,,,,2007,52.3850674,20.6603092,850000.0,PLN,6746.0317460317465
Dom na sprzedaż,Świętajno,Świętajno,olecki,warmińsko-mazurskie,,,2022-05-06 09:37:14.009 +0200,REAL_ESTATE_AGENCY,,,WATER_SUPPLY,BRICK,,WOODEN,,12,,,,2010,54.00455,22.31766,2585000.0,PLN,2637.7551020408164
"Przysuski, Borkowice",Borkowice,Dłutów,pabianicki,łódzkie,,,2022-05-05 20:12:52.076 +0200,REAL_ESTATE_AGENCY,GAS_HEATING,,WATER_SUPPLY,,,,,20,,,,1908,,,7500000.0,PLN,3750.0
"Piaseczyński, Lesznowola, Władysławów",Władysławów,Lesznowola,piaseczyński,mazowieckie,,,2022-05-04 14:15:42.275 +0200,REAL_ESTATE_AGENCY,,,,,,,,6,,,,,52.06975,20.93706,2500000.0,PLN,5555.555555555556
Dom na sprzedaż,Staroźreby,Staroźreby,płocki,mazowieckie,,,2022-05-04 16:14:31.997 +0200,REAL_ESTATE_AGENCY,,,,OTHER,,OTHER,,10,,,,,52.6329268,19.986628,1850000.0,PLN,1761.904761904762
"Poznań, Nowe Miasto",Poznań,Poznań,Poznań,wielkopolskie,,,2022-05-01 13:45:31.736 +0200,PRIVATE,OTHER_HEATING,BOILER_ROOM,WATER_SUPPLY,BRICK,CERAMIC_TILE,,,8,,true,,1928,52.406374,16.9251681,1450000.0,PLN,4833.333333333333
"Przysuski, Borkowice",Borkowice,Borkowice,przysuski,mazowieckie,,,2022-05-05 19:45:37.385 +0200,REAL_ESTATE_AGENCY,GAS_HEATING,,WATER_SUPPLY,,,,,,,,,1908,51.3201051,20.68325,7500000.0,PLN,3750.0
Dom na sprzedaż,Mielnik,Mielnik,siemiatycki,podlaskie,,,2022-05-06 09:29:32.550 +0200,REAL_ESTATE_AGENCY,,,WATER_SUPPLY,BRICK,,OTHER,,6,,,,2006,52.32932,23.0473,1200000.0,PLN,2000.0
"Warszawski Zachodni, Leszno",Leszno,Leszno,warszawski zachodni,mazowieckie,,,2022-05-05 15:46:52.128 +0200,REAL_ESTATE_AGENCY,MUNICIPAL,GAS_HEATING,WATER_SUPPLY,WOOD,,WOODEN,,5,2,,,2009,52.23281,20.52605,2375000.0,PLN,13194.444444444445
Dom na sprzedaż,Czyżew,Czyżew,wysokomazowiecki,podlaskie,,,2022-05-06 09:37:08.496 +0200,REAL_ESTATE_AGENCY,,,,BLOCK,,OTHER,,12,,,,2005,52.79637849,22.33408928,1990000.0,PLN,2211.1111111111113
"żarski, Przewóz, Pałac Sobolice, Sobolice",Sobolice,Przewóz,żarski,lubuskie,,,2022-05-03 06:50:23.484 +0200,,,,,,,,,24,,,,,51.4806,14.9542,2500000.0,PLN,1329.0802764486975
"Buski, Stopnica, Bosowice",Bosowice,Stopnica,buski,świętokrzyskie,,,2022-05-10 14:35:34.374 +0200,REAL_ESTATE_AGENCY,OTHER_HEATING,TILED_STOVE,WELL,BRICK,,,,12,,true,true,1840,50.5258,20.8838,2999999.0,PLN,5628.515947467167
"Buski, Stopnica, Bosowice",Bosowice,Stopnica,buski,świętokrzyskie,,,2022-05-10 14:18:09.761 +0200,REAL_ESTATE_AGENCY,OTHER_HEATING,TILED_STOVE,WELL,BRICK,,,,12,,true,true,1840,50.5258,20.8838,2999999.0,PLN,4687.4984375
Dom na sprzedaż,Drawsko Pomorskie,Drawsko Pomorskie,drawski,zachodniopomorskie,,,2022-05-13 04:17:16.190 +0200,REAL_ESTATE_AGENCY,,,WATER_SUPPLY,BRICK,,,,20,,,,1860,53.5310786,15.8134179,990000.0,PLN,876.8821966341895
Imponujący pałac k. Leszna-INWESTYCJA-ulga-OKAZJA,Góra,Góra,górowski,dolnośląskie,,,2022-05-07 06:03:17.276 +0200,REAL_ESTATE_AGENCY,,,WATER_SUPPLY,BRICK,ROOFING_FELT,MESH,,10,,true,,1890,51.66739,16.54273,1990000.0,PLN,1105.5555555555557
Dom na sprzedaż,Zborów,Żelazków,kaliski,wielkopolskie,,,2022-05-11 16:28:07.373 +0200,REAL_ESTATE_AGENCY,,,WATER_SUPPLY,BRICK,,,,10,,,,1945,51.8539548,18.173209,9500000.0,PLN,4750.0
Odrestaurowany Dworek z parkiem w ok. Kalisza!,Żelazków,Żelazków,kaliski,wielkopolskie,,,2022-05-13 15:38:05.178 +0200,REAL_ESTATE_AGENCY,,OTHER_HEATING,WATER_SUPPLY,,,OTHER,,10,,true,,1945,51.8533,18.1804,9500000.0,PLN,4871.794871794872
"Kamieński (Pow.), Wolin (Gm.), Piaski Wielkie",Piaski Wielkie,Wolin,kamieński,zachodniopomorskie,,,2022-05-10 12:11:22.051 +0200,,MUNICIPAL,BOILER_ROOM,WATER_SUPPLY,BRICK,,NONE,,25,16,true,true,1932,53.8537,14.7041,1190000.0,PLN,858.5858585858585
"Kamieński (Pow.), Wolin (Gm.), Piaski Wielkie,  15",Piaski Wielkie,Wolin,kamieński,zachodniopomorskie,,,2022-05-10 12:11:37.279 +0200,REAL_ESTATE_AGENCY,MUNICIPAL,BOILER_ROOM,WATER_SUPPLY,BRICK,,NONE,,25,16,true,true,1932,53.8537,14.7041,1190000.0,PLN,725.609756097561
"kłodzki, Kłodzko, Piszkowice, 56 Piszkowice",Piszkowice,Kłodzko,kłodzki,dolnośląskie,,,2022-05-12 21:07:31.261 +0200,,OTHER_HEATING,BOILER_ROOM,WATER_SUPPLY,,,OTHER,,27,,,true,1722,50.4692,16.5901,7650000.0,PLN,4500.0
"kłodzki, Kłodzko, Piszkowice, 56 Piszkowice 56",Kłodzko,Kłodzko m,kłodzki,dolnośląskie,,,2022-05-12 20:45:38.596 +0200,,,BOILER_ROOM,WATER_SUPPLY,,,OTHER,,27,,,true,1426,50.4692,16.5901,6940000.0,PLN,4082.3529411764707
"koszaliński, Manowo, Kopanino",Kopanino,Manowo,koszaliński,zachodniopomorskie,,,2022-05-13 14:23:45.967 +0200,,,,,,,,,16,,,,,54.0917,16.3214,1550000.0,PLN,2440.9448818897636
Przedwojenny dworek na sprzedaż pod Kwidzynem,Nowy Dwór,Kwidzyn,kwidzyński,pomorskie,,,2022-05-07 02:18:39.771 +0200,REAL_ESTATE_AGENCY,,,WATER_SUPPLY,,CERAMIC_TILE,,,6,,,,,53.71289,18.85856,595000.0,PLN,2173.119065010957
Dom na sprzedaż,Gostkowo,Główczyce,słupski,pomorskie,,,2022-05-11 14:18:08.825 +0200,REAL_ESTATE_AGENCY,,,WATER_SUPPLY,BRICK,,OTHER,,,,,,,54.55866,17.45281,1990000.0,PLN,1047.3684210526317
Dworek ze stawem 50km od Gdańska na sprzedaż,Pelplin,Pelplin,tczewski,pomorskie,,,2022-05-09 00:07:25.359 +0200,REAL_ESTATE_AGENCY,,,WATER_SUPPLY,BRICK,,MESH,,10,,true,,1890,53.92579,18.72438,1000000.0,PLN,1256.992018100685
Wyjątkowa rezydencja blisko Warszawy | 3ha działki,Janówek,Wierzbno,węgrowski,mazowieckie,,,2022-05-11 11:37:42.134 +0200,REAL_ESTATE_AGENCY,,,,,,,,10,,,,1992,52.28765,21.81044,4200000.0,PLN,11481.683980317113
Dom na sprzedaż,Osieki Lęborskie,Choczewo,wejherowski,pomorskie,,,2022-05-09 02:04:07.704 +0200,REAL_ESTATE_AGENCY,,,WATER_SUPPLY,OTHER,,OTHER,,,,,,1960,54.7716299,17.8936049,7900000.0,PLN,12.287228747760302
"kujawsko-pomorskie, włocławski, Brześć Kujawski, Wieniec-Zalesie, Sowia 31",Brześć Kujawski,Brześć Kujawski,włocławski,kujawsko-pomorskie,Sowia,,2022-05-07 12:37:03.130 +0200,REAL_ESTATE_AGENCY,,,,,,NONE,,4,,,,,52.66197638,18.94802392,4300000.0,PLN,7166.666666666667
"śląskie, Bielsko-Biała",Bielsko-Biała,Bielsko-Biała,Bielsko-Biała,śląskie,,,2022-05-20 18:52:22.621 +0200,REAL_ESTATE_AGENCY,,,WATER_SUPPLY,OTHER,,,,5,,,,2022,49.821877,19.047007,1499000.0,PLN,6068.825910931174
"Dwór 600m2+zabudowania 800m2+park 18.300m2, Zawada",Bochnia,Bochnia m,bocheński,małopolskie,,,2022-05-16 08:10:35.577 +0200,REAL_ESTATE_AGENCY,,GAS_HEATING,WATER_SUPPLY,,,MESH,,6,,,,1832,49.96922,20.42885,3699000.0,PLN,6165.0
PAŁAC nad jeziorem-Mielno k.Gniezna-NOWA CENA-ULGA,Bydgoszcz,Bydgoszcz,Bydgoszcz,kujawsko-pomorskie,,,2022-05-14 15:06:33.862 +0200,REAL_ESTATE_AGENCY,,,WATER_SUPPLY,BRICK,,MESH,,10,,true,,1900,53.1342,17.99035,2600000.0,PLN,1130.4347826086957
Dom na sprzedaż,Marzewo,Pasłęk,elbląski,warmińsko-mazurskie,,,2022-05-19 16:14:52.866 +0200,REAL_ESTATE_AGENCY,,,,BRICK,,,,12,,,,1853,53.9644557,19.6943844,7500000.0,PLN,7684.426229508197
"warmińsko-mazurskie, ełcki, Ełk",Ełk,Ełk m,ełcki,warmińsko-mazurskie,,,2022-05-18 14:19:40.791 +0200,PRIVATE,,,WATER_SUPPLY,BRICK,,MIXED,,,,true,,,53.825364,22.363372,1150000.0,PLN,2300.0
"Dom na sprzedaż: warmińsko-mazurskie, ełcki, Ełk",Ełk,Ełk m,ełcki,warmińsko-mazurskie,,,2022-05-19 00:11:47.613 +0200,PRIVATE,OTHER_HEATING,,WATER_SUPPLY,BRICK,,MIXED,,,,true,,,53.825364,22.363372,1150000.0,PLN,4791.666666666667
"warmińsko-mazurskie, ełcki, Ełk",Ełk,Ełk m,ełcki,warmińsko-mazurskie,,,2022-05-18 13:50:51.832 +0200,,OTHER_HEATING,,WATER_SUPPLY,BRICK,,MIXED,,,,true,,,53.825364,22.363372,1250000.0,PLN,5208.333333333333
"Pałac-Dwór XIX w. Zespół Pałacowo Parkowy, Zabyt.",Skoraszewice,Pępowo,gostyński,wielkopolskie,,,2022-05-15 16:35:21.525 +0200,PRIVATE,,,WATER_SUPPLY,BRICK,CERAMIC_TILE,,,10,,true,,1908,51.73396,17.06452,1480000.0,PLN,1850.0
Dom na sprzedaż,Grodzisk Mazowiecki,Grodzisk Mazowiecki,grodziski,mazowieckie,,,2022-05-20 16:11:17.417 +0200,REAL_ESTATE_AGENCY,,,WATER_SUPPLY,BRICK,,MESH,,4,,,,1876,52.1044383,20.6350923,1799000.0,PLN,9868.348875479978
"Kielecki, Bodzentyn, Święta Katarzyna",Święta Katarzyna,Bodzentyn,kielecki,świętokrzyskie,,,2022-05-16 18:16:49.047 +0200,REAL_ESTATE_AGENCY,OTHER_HEATING,,WATER_SUPPLY,BLOCK,CERAMIC_TILE,OTHER,,9,8,true,true,2019,50.9063,20.8807,4000000.0,PLN,7938.082952966859
"Lipnowski, Kikół",Kikół,Kikół,lipnowski,kujawsko-pomorskie,,,2022-05-14 00:41:30.817 +0200,REAL_ESTATE_AGENCY,,,,,,OTHER,,4,,true,,,52.9092,19.1198,479000.0,PLN,2661.1111111111113
"Lubelski, Borzechów, Majdan Skrzyniecki",Majdan Skrzyniecki,Borzechów,lubelski,lubelskie,,,2022-05-20 12:25:28.142 +0200,,GAS_HEATING,,WATER_SUPPLY,WOOD,,,,4,2,,,2018,51.09837474,22.23594189,869000.0,PLN,8690.0
"Myślenicki, Dobczyce, Brzączowice",Brzączowice,Dobczyce,myślenicki,małopolskie,,,2022-05-18 20:59:43.312 +0200,REAL_ESTATE_AGENCY,ELECTRIC_HEATING,BOILER_ROOM,WATER_SUPPLY,,CERAMIC_TILE,OTHER,,4,,,,2015,49.87464,20.03014,750000.0,PLN,4411.764705882353
"Piaseczyński, Piaseczno, Zalesie Górne",Zalesie Górne,Piaseczno,piaseczyński,mazowieckie,,,2022-05-18 23:16:06.834 +0200,REAL_ESTATE_AGENCY,GAS_HEATING,GAS_HEATING,WATER_SUPPLY,BRICK,,,,7,2,,,2004,52.0274,21.0367,1330000.0,PLN,5018.867924528302
Sprzedam Dom 'Dworek' 550m2,Szymocin,Grębocice,polkowicki,dolnośląskie,,,2022-05-15 13:07:33.954 +0200,PRIVATE,,,WATER_SUPPLY,,CERAMIC_TILE,,,10,,true,,1890,51.59609519175992,16.236742199263936,400000.0,PLN,727.2727272727273
"Pruszkowski, Pruszków, Komorów",Komorów,Michałowice,pruszkowski,mazowieckie,,,2022-05-18 23:35:30.361 +0200,REAL_ESTATE_AGENCY,,,,,,,,,,,,,52.1446983,20.8156334,9990000.0,PLN,23341.1214953271
Dworek Komorów,Komorów,Wieniawa,przysuski,mazowieckie,,,2022-05-18 23:47:08.856 +0200,REAL_ESTATE_AGENCY,,,,,,,,,,,,,,,9990000.0,PLN,23341.1214953271
Posiadłość z linią brzegową jeziora!,Godziszewo,Skarszewy,starogardzki,pomorskie,Nad Jeziorem,,2022-05-18 14:25:51.639 +0200,REAL_ESTATE_AGENCY,,,,,,,,10,,true,,2000,54.0925,18.5384,2050000.0,PLN,3416.6666666666665
"Dworek, ul. Skrzyneckiego",Warszawa,Warszawa,Warszawa,mazowieckie,Skrzyneckiego,,2022-05-19 18:52:24.794 +0200,REAL_ESTATE_AGENCY,,GAS_HEATING,WATER_SUPPLY,,,,,11,,true,,1993,52.1962166,21.1782251,5000000.0,PLN,5000.0
Dom na sprzedaż,Włocławek,Włocławek m,Włocławek,kujawsko-pomorskie,,,2022-05-20 16:10:54.310 +0200,REAL_ESTATE_AGENCY,,,WATER_SUPPLY,OTHER,,MESH,,5,,,,,52.60714,19.0225911,890000.0,PLN,4139.53488372093
Dom na sprzedaż,Chodecz,Chodecz,włocławski,kujawsko-pomorskie,,,2022-05-20 02:16:27.018 +0200,REAL_ESTATE_AGENCY,,,,BRICK,,OTHER,,4,,,,1900,52.40523,19.02746,1060000.0,PLN,2639.836628978433
Pałac w Obiszowie Gmina Grębocice,Wrocław,Wrocław,Wrocław,dolnośląskie,,,2022-05-17 09:34:57.059 +0200,REAL_ESTATE_AGENCY,,,,BRICK,CERAMIC_TILE,,,10,,,,1800,51.10195,17.03667,350000.0,PLN,291.6666666666667
Dworek Bosowice,Bosowice,Stopnica,buski,świętokrzyskie,,,2022-05-26 17:59:23.473 +0200,REAL_ESTATE_AGENCY,,,WATER_SUPPLY,,,,,10,,,,1840,50.5257833,20.8838482,3300000.0,PLN,2200.0
Sprzedam Dworek Staropolski 330m2 + 110m2,Gorzów Wielkopolski,Gorzów Wielkopolski,Gorzów Wielkopolski,lubuskie,,,2022-05-23 14:14:52.302 +0200,REAL_ESTATE_AGENCY,,,WATER_SUPPLY,,,OTHER,,7,,,,2005,52.72918,15.24028,999000.0,PLN,2775.0
"Kętrzyński (Pow.), Barciany (Gm.), Barciany, Wiosenna",Barciany,Barciany,kętrzyński,warmińsko-mazurskie,Wiosenna,,2022-05-27 11:25:27.204 +0200,,,,,,,,,20,,,,,54.2131,21.3481,9000000.0,PLN,701.2076353720296
"Kętrzyński (Pow.), Barciany (Gm.), Barciany, Wiosenna",Barciany,Barciany,kętrzyński,warmińsko-mazurskie,Wiosenna,,2022-05-27 11:34:08.037 +0200,REAL_ESTATE_AGENCY,,,,,,,,20,,,,,54.2131,21.3481,9000000.0,PLN,300.0
"Lubelski, Niemce, Boduszyn",Boduszyn,Niemce,lubelski,lubelskie,,,2022-05-24 13:05:14.253 +0200,REAL_ESTATE_AGENCY,MUNICIPAL,BOILER_ROOM,WATER_SUPPLY,BRICK,,,,10,3,true,true,1903,51.32886,22.64141,7900000.0,PLN,15674.603174603175
"Myszkowski, Żarki, Przybynów",Przybynów,Żarki,myszkowski,śląskie,,,2022-05-23 17:46:42.738 +0200,REAL_ESTATE_AGENCY,,OTHER_HEATING,,BRICK,,NONE,,1,,,,,50.66011,19.31134,1190000.0,PLN,752.212389380531
"Nowosądecki, Piwniczna-Zdrój, Szczawnicka",Piwniczna-Zdrój,Piwniczna-Zdrój,nowosądecki,małopolskie,Szczawnicka,,2022-05-27 12:25:44.880 +0200,,,BOILER_ROOM,,WOOD,,NONE,,23,2,true,true,1936,49.4369,20.68876,490000.0,PLN,1225.0
Dom na sprzedaż,Kołbiel,Kołbiel,otwocki,mazowieckie,,,2022-05-24 12:09:04.871 +0200,REAL_ESTATE_AGENCY,,,WATER_SUPPLY,OTHER,,OTHER,,6,,,,2002,52.0646474,21.4836639,1350000.0,PLN,4090.909090909091
"Dom, 353 m2, Sobiekursk",Sobiekursk,Karczew,otwocki,mazowieckie,,,2022-05-26 06:31:14.538 +0200,REAL_ESTATE_AGENCY,,GAS_HEATING,,BRICK,CERAMIC_TILE,,,8,,,,1990,52.02411,21.2884,3800000.0,PLN,10764.87252124646
"Dom, 170 m2, Swarzędz",Swarzędz,Swarzędz,poznański,wielkopolskie,,,2022-05-21 11:02:57.560 +0200,REAL_ESTATE_AGENCY,,GAS_HEATING,WATER_SUPPLY,BRICK,CERAMIC_TILE,,,5,,true,,,52.409371895432,17.085777601368,1320000.0,PLN,7764.705882352941
Dochodowy apartamentowiec Jastzębia Góra,Jastrzębia Góra,Władysławowo,pucki,pomorskie,Jałowcowa,,2022-05-27 16:10:15.564 +0200,REAL_ESTATE_AGENCY,,,,,,,,10,,,,2018,54.82978,18.31487,7500000.0,PLN,8720.93023255814
"Rawski, Rawa Mazowiecka",Rawa Mazowiecka,Rawa Mazowiecka m,rawski,łódzkie,,,2022-05-23 15:07:15.872 +0200,PRIVATE,OTHER_HEATING,TILED_STOVE,WELL,BRICK,,,,34,37,,,2008,51.76303,20.25241,4950000.0,PLN,2291.6666666666665
Dom na sprzedaż,Wirów,Jabłonna Lacka,sokołowski,mazowieckie,,,2022-05-26 16:11:55.924 +0200,REAL_ESTATE_AGENCY,,,,OTHER,,,,14,,,,1,52.42384,22.51532,2995000.0,PLN,1361.3636363636363
Dom na sprzedaż,Podrzewie,Duszniki,szamotulski,wielkopolskie,,,2022-05-26 00:09:20.955 +0200,REAL_ESTATE_AGENCY,,,,OTHER,,,,20,,,,1910,52.49592,16.38859,2350000.0,PLN,2350.0
Dom na sprzedaż,Tczew,Tczew m,tczewski,pomorskie,,,2022-05-23 14:17:51.388 +0200,REAL_ESTATE_AGENCY,,,WATER_SUPPLY,BLOCK,,OTHER,,4,,,,2007,54.08799,18.79975,1290000.0,PLN,5817.3618940248025
Siedlisko wiejskie. Gospodarstwo,Gołańcz,Gołańcz,wągrowiecki,wielkopolskie,,,2022-05-22 18:08:46.499 +0200,PRIVATE,,,,BRICK,CERAMIC_TILE,,,7,,true,,,52.94562,17.30363,390000.0,PLN,1444.4444444444443
Dom na sprzedaż,Marianów,Leszno,warszawski zachodni,mazowieckie,,,2022-05-24 12:08:42.188 +0200,REAL_ESTATE_AGENCY,,,WATER_SUPPLY,OTHER,,OTHER,,9,,,,1999,52.264715,20.5613956,2300000.0,PLN,6571.428571428572
"Zgorzelecki, Sławnikowice",Sławnikowice,Zgorzelec,zgorzelecki,dolnośląskie,,,2022-05-26 11:35:27.731 +0200,REAL_ESTATE_AGENCY,MUNICIPAL,,WATER_SUPPLY,BRICK,CERAMIC_TILE,,,14,,true,,,51.1803004,15.1735773,5600000.0,PLN,5199.628597957289
"Zgorzelecki, Sławnikowice",Sławnikowice,Zgorzelec,zgorzelecki,dolnośląskie,,,2022-05-25 18:03:57.000 +0200,REAL_ESTATE_AGENCY,MUNICIPAL,,WATER_SUPPLY,BRICK,CERAMIC_TILE,,,14,,,,,51.1803004,15.1735773,5600000.0,PLN,4056.501267656646
"Bielsko-Biała M., Bielsko-Biała, Lipnik",Bielsko-Biała,Bielsko-Biała,Bielsko-Biała,śląskie,,,2022-06-02 18:05:54.195 +0200,,MUNICIPAL,OTHER_HEATING,WATER_SUPPLY,BRICK,OTHER,METAL,,4,,true,true,1995,,,1390000.0,PLN,11880.34188034188
"Bielsko-Biała M., Bielsko-Biała, Lipnik",Bielsko-Biała,Bielsko-Biała,Bielsko-Biała,śląskie,,,2022-06-02 18:05:46.469 +0200,REAL_ESTATE_AGENCY,MUNICIPAL,OTHER_HEATING,WATER_SUPPLY,BRICK,OTHER,METAL,,4,,true,true,1995,,,1390000.0,PLN,9520.547945205479
"Grodziski, Grodzisk Mazowiecki",Grodzisk Mazowiecki,Grodzisk Mazowiecki,grodziski,mazowieckie,,,2022-06-03 16:02:16.273 +0200,REAL_ESTATE_AGENCY,MUNICIPAL,GAS_HEATING,WATER_SUPPLY,BLOCK,CERAMIC_TILE,,,5,3,true,,2006,52.1005063,20.6108968,1890000.0,PLN,9130.434782608696
Dom na sprzedaż,Strzepowo,Będzino,koszaliński,zachodniopomorskie,,,2022-05-28 22:08:12.402 +0200,REAL_ESTATE_AGENCY,,,,OTHER,,OTHER,,30,,,,,54.1747938,15.8837795,500000.0,PLN,166.66666666666666
Prosperujący Biznes * HOTEL + RESTAURACJA *,Przytoczna,Przytoczna,międzyrzecki,lubuskie,,,2022-05-28 13:07:47.899 +0200,REAL_ESTATE_AGENCY,,GAS_HEATING,WATER_SUPPLY,BRICK,,,,8,,,,,52.57702,15.67899,1980000.0,PLN,2475.0
Dom na sprzedaż,Prażmów,Prażmów,piaseczyński,mazowieckie,,,2022-06-02 12:12:55.540 +0200,REAL_ESTATE_AGENCY,,,,BRICK,,OTHER,,10,,,,1850,51.9404193,20.956762,1650000.0,PLN,2291.6666666666665
"Piaseczyński, Prażmów",Prażmów,Prażmów,piaseczyński,mazowieckie,,,2022-06-02 10:33:13.597 +0200,REAL_ESTATE_AGENCY,GAS_HEATING,GAS_HEATING,WATER_SUPPLY,BRICK,,,,10,,,,1850,51.9402,20.9546,1890000.0,PLN,2625.0
Dworek,Konstancin-Jeziorna,Konstancin-Jeziorna,piaseczyński,mazowieckie,,,2022-06-01 04:49:22.703 +0200,REAL_ESTATE_AGENCY,,,WATER_SUPPLY,,,,,10,,,,2000,52.0798135,21.110599,4999000.0,PLN,6943.055555555556
"Piaseczyński, Prażmów",Prażmów,Prażmów,piaseczyński,mazowieckie,,,2022-06-02 10:34:53.224 +0200,REAL_ESTATE_AGENCY,GAS_HEATING,GAS_HEATING,WATER_SUPPLY,BRICK,,,,10,,,,1850,51.9402,20.9546,1890000.0,PLN,2779.4117647058824
Dom Z Linią Brzegową / Nowoczesny / Do Wprowadzeni,Barcin,Barcin,żniński,kujawsko-pomorskie,,,2022-06-03 19:07:57.951 +0200,REAL_ESTATE_AGENCY,,GAS_HEATING,WATER_SUPPLY,,,OTHER,,5,,true,,2018,52.86611,17.94626,3490000.0,PLN,10405.175755046062
Sprzedam dom,Brodnica,Brodnica m,brodnicki,kujawsko-pomorskie,,,2022-06-07 13:35:31.621 +0200,PRIVATE,,,WATER_SUPPLY,BRICK,METAL_SHEET,,,8,,true,,1894,53.35750848742612,19.300625650024408,990000.0,PLN,3535.714285714286
"Buski, Stopnica, Bosowice",Bosowice,Stopnica,buski,świętokrzyskie,,,2022-06-06 12:08:09.464 +0200,,OTHER_HEATING,TILED_STOVE,WELL,BRICK,,,,12,1,true,true,1840,50.5258,20.8838,3399000.0,PLN,6377.110694183865
"Buski, Stopnica, Bosowice",Bosowice,Stopnica,buski,świętokrzyskie,,,2022-06-06 12:07:59.270 +0200,REAL_ESTATE_AGENCY,OTHER_HEATING,TILED_STOVE,WELL,BRICK,,,,12,1,true,true,1840,50.5258,20.8838,3399000.0,PLN,5310.9375
Dworek Przybysław,Przybysław,Krzęcin,choszczeński,zachodniopomorskie,,,2022-06-08 16:43:00.194 +0200,REAL_ESTATE_AGENCY,,,WATER_SUPPLY,,,,,30,,,,1850,53.0332651,15.4543946,4500000.0,PLN,7500.0
"Gdański, Trąbki Wielkie, Sobowidz, Tadeusza Kościuszki",Sobowidz,Trąbki Wielkie,gdański,pomorskie,Gdański,,2022-06-06 12:25:35.345 +0200,,,,,,,,,9,,,,1870,54.14607,18.59886,330000.0,PLN,722.1006564551423
"Gdański, Trąbki Wielkie, Sobowidz, Tadeusza Kościuszki",Trąbki Wielkie,Trąbki Wielkie,gdański,pomorskie,Tadeusza Kościuszki,,2022-06-06 12:32:36.489 +0200,REAL_ESTATE_AGENCY,,,,,,,,9,,,,1870,54.14607,18.59886,330000.0,PLN,722.1006564551423
Zespół parkowo-pałacowy - pałac z oficyną !,Karkajmy,Orneta,lidzbarski,warmińsko-mazurskie,,,2022-06-07 17:34:16.466 +0200,REAL_ESTATE_AGENCY,,,WATER_SUPPLY,BRICK,,,,1,,,,,54.09565,20.09485,1350000.0,PLN,1527.1493212669684
Nieruchomość pod inwestycję w Lubomierzu!,Lubomierz,Lubomierz,lwówecki,dolnośląskie,Majowa,,2022-06-06 13:33:01.133 +0200,REAL_ESTATE_AGENCY,,,,,,,,10,,,,,51.0132,15.50738,569000.0,PLN,335.9528603227273
Dom na sprzedaż,Czeczotki,Czosnów,nowodworski,mazowieckie,,,2022-06-06 12:10:26.553 +0200,REAL_ESTATE_AGENCY,,,,WOOD,,WOODEN,,3,,,,2007,52.3844444,20.6605556,850000.0,PLN,6746.0317460317465
Sprzedam stary dom z gruntem rolnym,Folwark,Prószków,opolski,opolskie,,,2022-06-08 18:34:12.694 +0200,PRIVATE,,,,,,,,4,,,,,50.62188,17.92336,270000.0,PLN,1500.0
"Ostródzki, Morąg, Ruś",Ruś,Morąg,ostródzki,warmińsko-mazurskie,,,2022-06-09 22:02:01.855 +0200,REAL_ESTATE_AGENCY,,BOILER_ROOM,,,,,,11,6,true,,1892,,,2800000.0,PLN,5090.909090909091
Dom na sprzedaż,Motarzyno,Dębnica Kaszubska,słupski,pomorskie,,,2022-06-04 14:39:42.922 +0200,REAL_ESTATE_AGENCY,,,WATER_SUPPLY,BRICK,,OTHER,,50,,,,1868,54.32537464,17.33244324,4200000.0,PLN,3000.0
Pałac w Zaborowie,Zaborowo,Książ Wielkopolski,śremski,wielkopolskie,,,2022-06-07 12:34:27.749 +0200,REAL_ESTATE_AGENCY,,,,BRICK,,,,10,,,,1890,52.09224,17.19706,1570000.0,PLN,1962.5
Zespół Pałacowo - Dworkowy,Góra,Śrem,śremski,wielkopolskie,,,2022-06-08 14:33:58.473 +0200,REAL_ESTATE_AGENCY,,,,BRICK,,,,10,,true,,,52.12269,16.98232,6500000.0,PLN,3333.3333333333335
"Śremski, Książ Wielkopolski, Zaborowo",Zaborowo,Książ Wielkopolski,śremski,wielkopolskie,,,2022-06-07 13:05:04.123 +0200,REAL_ESTATE_AGENCY,,,,BRICK,,,,10,,,,1890,52.09224,17.19706,1370000.0,PLN,1712.5
"Wągrowiecki (Pow.), Mieścisko (Gm.), Popowo Kościelne,  38",Popowo Kościelne,Mieścisko,wągrowiecki,wielkopolskie,,,2022-06-05 21:07:35.113 +0200,REAL_ESTATE_AGENCY,,,,,,,,10,,,,,52.7125,17.2658,2100000.0,PLN,3230.769230769231
"Oryginalny, ponadczasowy dom.",Kiełpin,Łomianki,warszawski zachodni,mazowieckie,Wiśniowa,,2022-06-08 09:34:23.722 +0200,REAL_ESTATE_AGENCY,,,,,,,,8,,true,,2012,52.35752,20.86964,4500000.0,PLN,11538.461538461539
Dom na sprzedaż,Malinówka Wielka,Ełk,ełcki,warmińsko-mazurskie,,,2022-06-14 13:49:52.733 +0200,REAL_ESTATE_AGENCY,,,,BRICK,,,,32,,,,1831,53.904625,22.3121906,7000000.0,PLN,8750.0
Gorzów Wielkopolski,Gorzów Wielkopolski,Gorzów Wielkopolski,Gorzów Wielkopolski,lubuskie,,,2022-06-15 14:09:05.074 +0200,REAL_ESTATE_AGENCY,ELECTRIC_HEATING,,WATER_SUPPLY,BRICK,,MIXED,,9,3,,,1890,52.74005,15.23281,2800000.0,PLN,7387.862796833773
"Dom na sprzedaż: Grodziski, Grodzisk Mazowiecki, Mościska",Mościska,Grodzisk Mazowiecki,grodziski,mazowieckie,,,2022-06-12 11:04:43.721 +0200,REAL_ESTATE_AGENCY,MUNICIPAL,MUNICIPAL,WATER_SUPPLY,BLOCK,METAL_TILE,,,3,4,true,true,2022,52.0659661,20.6179447,3300000.0,PLN,14163.090128755364
Pałac-32 km Poznań-ULGA,Granówko,Granowo,grodziski,wielkopolskie,,,2022-06-17 06:06:45.559 +0200,REAL_ESTATE_AGENCY,,,WATER_SUPPLY,BRICK,CERAMIC_TILE,,,10,,true,,1830,52.19929,16.54948,1500000.0,PLN,1200.0
Dworek Mościska,Mościska,Grodzisk Mazowiecki,grodziski,mazowieckie,,,2022-06-11 23:53:11.421 +0200,REAL_ESTATE_AGENCY,,MUNICIPAL,WATER_SUPPLY,,,,,5,,true,,2022,52.0659661,20.6179447,3300000.0,PLN,13200.0
!! Unikalna posiadłość nad rzeką-prywatna wyspa !!,Grabia,Sędziejowice,łaski,łódzkie,,,2022-06-12 13:33:07.729 +0200,PRIVATE,,,WATER_SUPPLY,BRICK,WOOD,,,8,,,,1811,51.52323390543302,18.998851280517574,600000.0,PLN,1818.1818181818182
Dwór-gm. Osieczna-Wlkp.-Leszno 18 km-ULGApodatkowa,Osieczna,Osieczna,leszczyński,wielkopolskie,,,2022-06-17 06:06:46.128 +0200,REAL_ESTATE_AGENCY,,,WATER_SUPPLY,BRICK,,OTHER,,10,,true,,1890,51.90301,16.67053,750000.0,PLN,1071.4285714285713
"Lipnowski, Dobrzyń Nad Wisłą, Płomiany",Płomiany,Dobrzyń nad Wisłą,lipnowski,kujawsko-pomorskie,,,2022-06-17 08:25:39.074 +0200,,,,,BRICK,,,,6,,,,1900,52.67341,19.3138,249000.0,PLN,415.0
Zabytek z potencjałem i dużą działką,Kłobuczyn,Gaworzyce,polkowicki,dolnośląskie,,,2022-06-14 14:14:07.181 +0200,REAL_ESTATE_AGENCY,,,,,,,,10,,,,,51.61302,15.92884,349000.0,PLN,923.3292766813058
Dwór+Oficyna+zabudowania+stawy- k. Rawicza -ULGA,Gierłachowo,Bojanowo,rawicki,wielkopolskie,,,2022-06-17 07:05:17.763 +0200,REAL_ESTATE_AGENCY,,,WATER_SUPPLY,BRICK,,OTHER,,10,,true,,1860,51.6853,16.82903,2400000.0,PLN,960.0
Dworek Sędzice,Sędzice,Wróblew,sieradzki,łódzkie,,,2022-06-15 15:50:02.808 +0200,REAL_ESTATE_AGENCY,,GAS_HEATING,,,,,,4,,,,1958,51.6427751,18.6010789,870000.0,PLN,6214.285714285715
Dworek we wsi Łowin/duża działka4200/budynek gosp.,Łowin,Pruszcz,świecki,kujawsko-pomorskie,,,2022-06-13 15:06:30.051 +0200,REAL_ESTATE_AGENCY,,BOILER_ROOM,WATER_SUPPLY,BRICK,CERAMIC_TILE,,,7,,true,,1908,53.34601,18.16742,1200000.0,PLN,4000.0
"wielkopolskie, turecki, Dobra, Dobra, Dekerta 33",Dobra,Dobra,turecki,wielkopolskie,Dekerta,,2022-06-15 04:37:32.466 +0200,PRIVATE,,,WATER_SUPPLY,BRICK,,MIXED,,,,,,1939,51.91854905,18.61587951,2450000.0,PLN,242.38227146814404
"Dom na sprzedaż: wielkopolskie, turecki, Dobra, Dobra, Dekerta",Dobra,Dobra,turecki,wielkopolskie,Dekerta,,2022-06-15 03:04:11.972 +0200,PRIVATE,OTHER_HEATING,,WATER_SUPPLY,BRICK,,MIXED,,,,,,1939,51.91854905,18.61587951,2450000.0,PLN,8596.491228070176
"HIT-Dwór k.Konina +3,5 ha działka+STAW-ULGA podat.",Smaszew,Tuliszków,turecki,wielkopolskie,,,2022-06-17 05:31:27.444 +0200,REAL_ESTATE_AGENCY,,,WATER_SUPPLY,BRICK,,OTHER,,10,,true,,1890,52.01302,18.27344,500000.0,PLN,1000.0
"śląskie, Bielsko-Biała",Bielsko-Biała,Bielsko-Biała,Bielsko-Biała,śląskie,,,2022-06-20 09:25:23.983 +0200,,OTHER_HEATING,,WATER_SUPPLY,OTHER,,,,5,,,,2022,49.821877,19.047007,1499000.0,PLN,6068.825910931174
Wyjątkowa nieruchomość - Dworek w Brzesku,Brzesko,Brzesko,brzeski,małopolskie,Adama Mickiewicza,,2022-06-21 11:36:29.142 +0200,REAL_ESTATE_AGENCY,,BOILER_ROOM,WATER_SUPPLY,,,OTHER,,10,,true,,1898,49.95813,20.59402,990000.0,PLN,3139.468510179489
"Buski, Stopnica, Bosowice",Bosowice,Stopnica,buski,świętokrzyskie,,,2022-06-21 23:25:31.009 +0200,,MUNICIPAL,OTHER_HEATING,WATER_SUPPLY,BRICK,,MESH,,12,1,true,true,1840,50.46813,20.71081,2999999.0,PLN,5555.553703703704
"Ciechanowski, Glinojeck, Wkra",Wkra,Glinojeck,ciechanowski,mazowieckie,,,2022-06-20 20:51:23.809 +0200,,,,,,METAL_SHEET,,,6,,,,,52.7923,20.2965,989000.0,PLN,4945.0
Luksusowa Villa w sercu Pola Golfowego w Egipcie.,Elżbiecin,Opinogóra Górna,ciechanowski,mazowieckie,,,2022-06-22 13:09:30.169 +0200,REAL_ESTATE_AGENCY,,,,,,,,7,,,,2021,27.40622,33.66939,2000000.0,PLN,952.3809523809524
"Cieszyński, Ustroń, Centrum",Ustroń,Ustroń,cieszyński,śląskie,Centrum,,2022-06-22 20:38:33.543 +0200,REAL_ESTATE_AGENCY,MUNICIPAL,,WATER_SUPPLY,,METAL_SHEET,,,8,8,true,true,1920,49.719657,18.8120576,1999999.0,PLN,5540.163434903047
"Cieszyński, Ustroń, Centrum",Ustroń,Ustroń,cieszyński,śląskie,,,2022-06-22 20:16:44.921 +0200,REAL_ESTATE_AGENCY,MUNICIPAL,,WATER_SUPPLY,,METAL_SHEET,,,,8,true,true,1920,49.719657,18.8120576,1999999.0,PLN,3861.0019305019305
Pałacyk nad jeziorem - Mazury,Romoty,Kalinowo,ełcki,warmińsko-mazurskie,,,2022-06-24 15:10:25.422 +0200,REAL_ESTATE_AGENCY,,,WATER_SUPPLY,BRICK,,OTHER,,10,,true,,1930,53.8018053,22.6531511,2500000.0,PLN,1576.6902119071647
"kłodzki, Kłodzko, Piszkowice, 56 Piszkowice",Piszkowice,Kłodzko,kłodzki,dolnośląskie,,,2022-06-20 17:09:46.259 +0200,,OTHER_HEATING,BOILER_ROOM,WATER_SUPPLY,,,OTHER,,27,,,true,1426,50.4692,16.5901,6940000.0,PLN,4082.3529411764707
Dworek Ustronie Morskie,Ustronie Morskie,Ustronie Morskie,kołobrzeski,zachodniopomorskie,,,2022-06-23 16:23:25.232 +0200,REAL_ESTATE_AGENCY,,GAS_HEATING,WATER_SUPPLY,,,,,,,,,,54.2019837,15.7499382,3600000.0,PLN,12413.793103448275
"Dom na sprzedaż: Kołobrzeski, Ustronie Morskie, Gwizd",Gwizd,Ustronie Morskie,kołobrzeski,zachodniopomorskie,,,2022-06-24 17:19:39.198 +0200,REAL_ESTATE_AGENCY,MUNICIPAL,GAS_HEATING,WATER_SUPPLY,BRICK,OTHER,,,3,,,,,54.2002171,15.7911304,3600000.0,PLN,12413.793103448275
Dom na sprzedaż,Polanów,Polanów,koszaliński,zachodniopomorskie,,,2022-06-21 19:08:49.014 +0200,REAL_ESTATE_AGENCY,,,WATER_SUPPLY,OTHER,,,,50,,,,1920,54.11921,16.68725,2990000.0,PLN,588.0039331366766
"Dom, 350 m2, Nowy Dwór Mazowiecki",Nowy Dwór Mazowiecki,Nowy Dwór Mazowiecki,nowodworski,mazowieckie,,,2022-06-23 15:37:35.290 +0200,REAL_ESTATE_AGENCY,,,WATER_SUPPLY,BRICK,CERAMIC_TILE,,,6,,,,2003,52.4465078,20.6925219,1900000.0,PLN,5428.571428571428
Dworek przeznaczony pod działalność usługową,Gorzów Śląski,Gorzów Śląski,oleski,opolskie,Złota,,2022-06-21 14:09:21.886 +0200,REAL_ESTATE_AGENCY,,GAS_HEATING,WATER_SUPPLY,BRICK,CERAMIC_TILE,MESH,,10,,true,,,51.0261419,18.4209231,2200000.0,PLN,2444.4444444444443
